{
"type": "FeatureCollection",
"name": "stazioni_arpa",
"crs": { "type": "name", "properties": { "name": "urn:ogc:def:crs:OGC:1.3:CRS84" } },
"features": [
{ "type": "Feature", "properties": { "idsensore": "17127", "nometiposensore": "Benzene", "unitamisura": "µg/m³", "idstazione": "501", "nomestazione": "Milano v.Marche", "quota": "129", "provincia": "MI", "comune": "Milano", "storico": "N", "datastart": "2012-09-13T00:00:00.000", "utm_nord": "5038105", "utm_est": "514918", "lat": 45.49631883, "lng": 9.19093444, "location": { "type": "Point", "coordinates": [ 9.19093444, 45.49631883 ] }, ":@computed_region_6hky_swhk": "4", ":@computed_region_ttgh_9sm5": "4", ":@computed_region_af5v_nc64": "8", "datastop": null }, "geometry": { "type": "Point", "coordinates": [ 9.19093444, 45.49631883 ] } },
{ "type": "Feature", "properties": { "idsensore": "6691", "nometiposensore": "Ozono", "unitamisura": "µg/m³", "idstazione": "642", "nomestazione": "Pavia v. Folperti", "quota": "77", "provincia": "PV", "comune": "Pavia", "storico": "N", "datastart": "2002-06-01T00:00:00.000", "utm_nord": "5004590", "utm_est": "512932", "lat": 45.19468231, "lng": 9.16464919, "location": { "type": "Point", "coordinates": [ 9.16464919, 45.19468231 ] }, ":@computed_region_6hky_swhk": "7", ":@computed_region_ttgh_9sm5": "7", ":@computed_region_af5v_nc64": "6", "datastop": null }, "geometry": { "type": "Point", "coordinates": [ 9.16464919, 45.19468231 ] } },
{ "type": "Feature", "properties": { "idsensore": "6646", "nometiposensore": "Particolato Totale Sospeso", "unitamisura": "µg/m³", "idstazione": "514", "nomestazione": "Rho via Buon Gesù", "quota": "152", "provincia": "MI", "comune": "Rho", "storico": "S", "datastart": "1991-10-11T00:00:00.000", "utm_nord": "5041100", "utm_est": "503483", "lat": 45.52342919, "lng": 9.0446025, "location": { "type": "Point", "coordinates": [ 9.0446025, 45.52342919 ] }, ":@computed_region_6hky_swhk": "4", ":@computed_region_ttgh_9sm5": "4", ":@computed_region_af5v_nc64": "8", "datastop": "1999-06-09T00:00:00.000" }, "geometry": { "type": "Point", "coordinates": [ 9.0446025, 45.52342919 ] } },
{ "type": "Feature", "properties": { "idsensore": "6939", "nometiposensore": "PM10 (SM2005)", "unitamisura": "µg/m³", "idstazione": "600", "nomestazione": "Lodi v.Vignati", "quota": "80", "provincia": "LO", "comune": "Lodi", "storico": "N", "datastart": "2000-12-05T00:00:00.000", "utm_nord": "5017060", "utm_est": "538042", "lat": 45.30601628, "lng": 9.48527511, "location": { "type": "Point", "coordinates": [ 9.48527511, 45.30601628 ] }, ":@computed_region_6hky_swhk": "11", ":@computed_region_ttgh_9sm5": "11", ":@computed_region_af5v_nc64": "8", "datastop": null }, "geometry": { "type": "Point", "coordinates": [ 9.48527511, 45.30601628 ] } },
{ "type": "Feature", "properties": { "idsensore": "6748", "nometiposensore": "Ossidi di Azoto", "unitamisura": "µg/m³", "idstazione": "647", "nomestazione": "Breno v.Don Putelli", "quota": "342", "provincia": "BS", "comune": "Breno", "storico": "S", "datastart": "1992-06-09T00:00:00.000", "utm_nord": "5090074", "utm_est": "600822", "lat": 45.95683656, "lng": 10.30106589, "location": { "type": "Point", "coordinates": [ 10.30106589, 45.95683656 ] }, ":@computed_region_6hky_swhk": "6", ":@computed_region_ttgh_9sm5": "6", ":@computed_region_af5v_nc64": "7", "datastop": "2018-07-30T00:00:00.000" }, "geometry": { "type": "Point", "coordinates": [ 10.30106589, 45.95683656 ] } },
{ "type": "Feature", "properties": { "idsensore": "5539", "nometiposensore": "Biossido di Azoto", "unitamisura": "µg/m³", "idstazione": "536", "nomestazione": "Arese v. Matteotti", "quota": "157", "provincia": "MI", "comune": "Arese", "storico": "S", "datastart": "1991-10-16T00:00:00.000", "utm_nord": "5043325", "utm_est": "506302", "lat": 45.54343664, "lng": 9.08072867, "location": { "type": "Point", "coordinates": [ 9.08072867, 45.54343664 ] }, ":@computed_region_6hky_swhk": "4", ":@computed_region_ttgh_9sm5": "4", ":@computed_region_af5v_nc64": "8", "datastop": "2018-07-30T00:00:00.000" }, "geometry": { "type": "Point", "coordinates": [ 9.08072867, 45.54343664 ] } },
{ "type": "Feature", "properties": { "idsensore": "5597", "nometiposensore": "Biossido di Azoto", "unitamisura": "µg/m³", "idstazione": "594", "nomestazione": "Bergamo v.Goisis", "quota": "290", "provincia": "BG", "comune": "Bergamo", "storico": "S", "datastart": "1996-09-14T00:00:00.000", "utm_nord": "5062715", "utm_est": "553620", "lat": 45.71591825, "lng": 9.68896994, "location": { "type": "Point", "coordinates": [ 9.68896994, 45.71591825 ] }, ":@computed_region_6hky_swhk": "5", ":@computed_region_ttgh_9sm5": "5", ":@computed_region_af5v_nc64": "1", "datastop": "2018-07-30T00:00:00.000" }, "geometry": { "type": "Point", "coordinates": [ 9.68896994, 45.71591825 ] } },
{ "type": "Feature", "properties": { "idsensore": "5531", "nometiposensore": "Biossido di Azoto", "unitamisura": "µg/m³", "idstazione": "528", "nomestazione": "Milano Verziere", "quota": "116", "provincia": "MI", "comune": "Milano", "storico": "N", "datastart": "1988-11-24T00:00:00.000", "utm_nord": "5034443", "utm_est": "515270", "lat": 45.46334886, "lng": 9.19532511, "location": { "type": "Point", "coordinates": [ 9.19532511, 45.46334886 ] }, ":@computed_region_6hky_swhk": "4", ":@computed_region_ttgh_9sm5": "4", ":@computed_region_af5v_nc64": "8", "datastop": null }, "geometry": { "type": "Point", "coordinates": [ 9.19532511, 45.46334886 ] } },
{ "type": "Feature", "properties": { "idsensore": "6655", "nometiposensore": "Particolato Totale Sospeso", "unitamisura": "µg/m³", "idstazione": "555", "nomestazione": "Busto Arsizio v.Magenta", "quota": "222", "provincia": "VA", "comune": "Busto Arsizio", "storico": "S", "datastart": "1991-05-25T00:00:00.000", "utm_nord": "5050810", "utm_est": "488313", "lat": 45.61073922, "lng": 8.850121, "location": { "type": "Point", "coordinates": [ 8.850121, 45.61073922 ] }, ":@computed_region_6hky_swhk": "1", ":@computed_region_ttgh_9sm5": "1", ":@computed_region_af5v_nc64": "3", "datastop": "2006-06-19T00:00:00.000" }, "geometry": { "type": "Point", "coordinates": [ 8.850121, 45.61073922 ] } },
{ "type": "Feature", "properties": { "idsensore": "9999", "nometiposensore": "Biossido di Azoto", "unitamisura": "µg/m³", "idstazione": "683", "nomestazione": "Cassano d'Adda 2-v.Milano", "quota": "133", "provincia": "MI", "comune": "Cassano d'Adda", "storico": "N", "datastart": "2006-02-17T00:00:00.000", "utm_nord": "5041567", "utm_est": "540293", "lat": 45.52647322, "lng": 9.515991, "location": { "type": "Point", "coordinates": [ 9.515991, 45.52647322 ] }, ":@computed_region_6hky_swhk": "4", ":@computed_region_ttgh_9sm5": "4", ":@computed_region_af5v_nc64": "8", "datastop": null }, "geometry": { "type": "Point", "coordinates": [ 9.515991, 45.52647322 ] } },
{ "type": "Feature", "properties": { "idsensore": "5731", "nometiposensore": "Ozono", "unitamisura": "µg/m³", "idstazione": "566", "nomestazione": "Olgiate Comasco v.Roma", "quota": "404", "provincia": "CO", "comune": "Olgiate Comasco", "storico": "S", "datastart": "1996-08-01T00:00:00.000", "utm_nord": "5070038", "utm_est": "497388", "lat": 45.78389908, "lng": 8.96640489, "location": { "type": "Point", "coordinates": [ 8.96640489, 45.78389908 ] }, ":@computed_region_6hky_swhk": "2", ":@computed_region_ttgh_9sm5": "2", ":@computed_region_af5v_nc64": "3", "datastop": "2010-04-15T00:00:00.000" }, "geometry": { "type": "Point", "coordinates": [ 8.96640489, 45.78389908 ] } },
{ "type": "Feature", "properties": { "idsensore": "5670", "nometiposensore": "Biossido di Zolfo", "unitamisura": "µg/m³", "idstazione": "584", "nomestazione": "Bergamo v.Garibaldi", "quota": "249", "provincia": "BG", "comune": "Bergamo", "storico": "N", "datastart": "1994-06-16T00:00:00.000", "utm_nord": "5060449", "utm_est": "551482", "lat": 45.69568669, "lng": 9.66126061, "location": { "type": "Point", "coordinates": [ 9.66126061, 45.69568669 ] }, ":@computed_region_6hky_swhk": "5", ":@computed_region_ttgh_9sm5": "5", ":@computed_region_af5v_nc64": "1", "datastop": null }, "geometry": { "type": "Point", "coordinates": [ 9.66126061, 45.69568669 ] } },
{ "type": "Feature", "properties": { "idsensore": "5949", "nometiposensore": "Ozono", "unitamisura": "µg/m³", "idstazione": "625", "nomestazione": "Casalmaggiore v.Volta", "quota": "23", "provincia": "CR", "comune": "Casalmaggiore", "storico": "S", "datastart": "1996-05-19T00:00:00.000", "utm_nord": "4981793", "utm_est": "612537", "lat": 44.98066517, "lng": 10.42738161, "location": { "type": "Point", "coordinates": [ 10.42738161, 44.98066517 ] }, ":@computed_region_6hky_swhk": "8", ":@computed_region_ttgh_9sm5": "8", ":@computed_region_af5v_nc64": "4", "datastop": "2007-02-21T00:00:00.000" }, "geometry": { "type": "Point", "coordinates": [ 10.42738161, 44.98066517 ] } },
{ "type": "Feature", "properties": { "idsensore": "5599", "nometiposensore": "Biossido di Azoto", "unitamisura": "µg/m³", "idstazione": "596", "nomestazione": "Osio Sotto v.per Levate", "quota": "182", "provincia": "BG", "comune": "Osio Sotto", "storico": "N", "datastart": "2000-04-06T00:00:00.000", "utm_nord": "5052072", "utm_est": "547691", "lat": 45.62055568, "lng": 9.61173782, "location": { "type": "Point", "coordinates": [ 9.61173782, 45.62055568 ] }, ":@computed_region_6hky_swhk": "5", ":@computed_region_ttgh_9sm5": "5", ":@computed_region_af5v_nc64": "1", "datastop": null }, "geometry": { "type": "Point", "coordinates": [ 9.61173782, 45.62055568 ] } },
{ "type": "Feature", "properties": { "idsensore": "9998", "nometiposensore": "Benzene", "unitamisura": "µg/m³", "idstazione": "683", "nomestazione": "Cassano d'Adda 2-v.Milano", "quota": "133", "provincia": "MI", "comune": "Cassano d'Adda", "storico": "S", "datastart": "2006-02-17T00:00:00.000", "utm_nord": "5041567", "utm_est": "540293", "lat": 45.52647322, "lng": 9.515991, "location": { "type": "Point", "coordinates": [ 9.515991, 45.52647322 ] }, ":@computed_region_6hky_swhk": "4", ":@computed_region_ttgh_9sm5": "4", ":@computed_region_af5v_nc64": "8", "datastop": "2024-02-20T00:00:00.000" }, "geometry": { "type": "Point", "coordinates": [ 9.515991, 45.52647322 ] } },
{ "type": "Feature", "properties": { "idsensore": "10449", "nometiposensore": "Particelle sospese PM2.5", "unitamisura": "µg/m³", "idstazione": "560", "nomestazione": "Varese v.Copelli", "quota": "383", "provincia": "VA", "comune": "Varese", "storico": "N", "datastart": "2009-09-01T00:00:00.000", "utm_nord": "5073728", "utm_est": "486035", "lat": 45.8169745, "lng": 8.82024911, "location": { "type": "Point", "coordinates": [ 8.82024911, 45.8169745 ] }, ":@computed_region_6hky_swhk": "1", ":@computed_region_ttgh_9sm5": "1", ":@computed_region_af5v_nc64": "3", "datastop": null }, "geometry": { "type": "Point", "coordinates": [ 8.82024911, 45.8169745 ] } },
{ "type": "Feature", "properties": { "idsensore": "5743", "nometiposensore": "Ozono", "unitamisura": "µg/m³", "idstazione": "569", "nomestazione": "Sondrio v.Mazzini", "quota": "307", "provincia": "SO", "comune": "Sondrio", "storico": "S", "datastart": "1993-11-01T00:00:00.000", "utm_nord": "5113078", "utm_est": "567173", "lat": 46.16797103, "lng": 9.87014581, "location": { "type": "Point", "coordinates": [ 9.87014581, 46.16797103 ] }, ":@computed_region_6hky_swhk": "3", ":@computed_region_ttgh_9sm5": "3", ":@computed_region_af5v_nc64": "7", "datastop": "2003-05-19T00:00:00.000" }, "geometry": { "type": "Point", "coordinates": [ 9.87014581, 46.16797103 ] } },
{ "type": "Feature", "properties": { "idsensore": "6218", "nometiposensore": "Ossidi di Azoto", "unitamisura": "µg/m³", "idstazione": "583", "nomestazione": "Bergamo v.Meucci", "quota": "249", "provincia": "BG", "comune": "Bergamo", "storico": "N", "datastart": "1989-06-01T00:00:00.000", "utm_nord": "5059922", "utm_est": "550116", "lat": 45.69104328, "lng": 9.64366092, "location": { "type": "Point", "coordinates": [ 9.64366092, 45.69104328 ] }, ":@computed_region_6hky_swhk": "5", ":@computed_region_ttgh_9sm5": "5", ":@computed_region_af5v_nc64": "1", "datastop": null }, "geometry": { "type": "Point", "coordinates": [ 9.64366092, 45.69104328 ] } },
{ "type": "Feature", "properties": { "idsensore": "5563", "nometiposensore": "Biossido di Azoto", "unitamisura": "µg/m³", "idstazione": "560", "nomestazione": "Varese v.Copelli", "quota": "383", "provincia": "VA", "comune": "Varese", "storico": "N", "datastart": "2003-08-07T00:00:00.000", "utm_nord": "5073728", "utm_est": "486035", "lat": 45.8169745, "lng": 8.82024911, "location": { "type": "Point", "coordinates": [ 8.82024911, 45.8169745 ] }, ":@computed_region_6hky_swhk": "1", ":@computed_region_ttgh_9sm5": "1", ":@computed_region_af5v_nc64": "3", "datastop": null }, "geometry": { "type": "Point", "coordinates": [ 8.82024911, 45.8169745 ] } },
{ "type": "Feature", "properties": { "idsensore": "6650", "nometiposensore": "Particolato Totale Sospeso", "unitamisura": "µg/m³", "idstazione": "543", "nomestazione": "Vimercate v. dell'Ospedale", "quota": "194", "provincia": "MB", "comune": "Vimercate", "storico": "S", "datastart": "1995-02-10T00:00:00.000", "utm_nord": "5051330", "utm_est": "528723", "lat": 45.611744, "lng": 9.3677, "location": { "type": "Point", "coordinates": [ 9.3677, 45.611744 ] }, ":@computed_region_6hky_swhk": "12", ":@computed_region_ttgh_9sm5": "12", ":@computed_region_af5v_nc64": "5", "datastop": "1998-02-04T00:00:00.000" }, "geometry": { "type": "Point", "coordinates": [ 9.3677, 45.611744 ] } },
{ "type": "Feature", "properties": { "idsensore": "6380", "nometiposensore": "Ossidi di Azoto", "unitamisura": "µg/m³", "idstazione": "572", "nomestazione": "Morbegno v.Cortivacci", "quota": "262", "provincia": "SO", "comune": "Morbegno", "storico": "N", "datastart": "1999-01-13T00:00:00.000", "utm_nord": "5108901", "utm_est": "543736", "lat": 46.135486, "lng": 9.56624, "location": { "type": "Point", "coordinates": [ 9.56624, 46.135486 ] }, ":@computed_region_6hky_swhk": "3", ":@computed_region_ttgh_9sm5": "3", ":@computed_region_af5v_nc64": "7", "datastop": null }, "geometry": { "type": "Point", "coordinates": [ 9.56624, 46.135486 ] } },
{ "type": "Feature", "properties": { "idsensore": "5831", "nometiposensore": "Monossido di Carbonio", "unitamisura": "mg/m³", "idstazione": "515", "nomestazione": "Pero SS Sempione", "quota": "141", "provincia": "MI", "comune": "Pero", "storico": "S", "datastart": "1991-05-10T00:00:00.000", "utm_nord": "5039595", "utm_est": "507028", "lat": 45.50985564, "lng": 9.08997419, "location": { "type": "Point", "coordinates": [ 9.08997419, 45.50985564 ] }, ":@computed_region_6hky_swhk": "4", ":@computed_region_ttgh_9sm5": "4", ":@computed_region_af5v_nc64": "8", "datastop": "2018-07-30T00:00:00.000" }, "geometry": { "type": "Point", "coordinates": [ 9.08997419, 45.50985564 ] } },
{ "type": "Feature", "properties": { "idsensore": "20685", "nometiposensore": "Ammoniaca", "unitamisura": "µg/m³", "idstazione": "501", "nomestazione": "Milano v.Marche", "quota": "129", "provincia": "MI", "comune": "Milano", "storico": "N", "datastart": "2024-01-13T00:00:00.000", "utm_nord": "5038105", "utm_est": "514918", "lat": 45.49631883, "lng": 9.19093444, "location": { "type": "Point", "coordinates": [ 9.19093444, 45.49631883 ] }, ":@computed_region_6hky_swhk": "4", ":@computed_region_ttgh_9sm5": "4", ":@computed_region_af5v_nc64": "8", "datastop": null }, "geometry": { "type": "Point", "coordinates": [ 9.19093444, 45.49631883 ] } },
{ "type": "Feature", "properties": { "idsensore": "12627", "nometiposensore": "Piombo", "unitamisura": "ng/m³", "idstazione": "705", "nomestazione": "Milano Pascal Città Studi", "quota": "122", "provincia": "MI", "comune": "Milano", "storico": "N", "datastart": "2008-04-01T00:00:00.000", "utm_nord": "5036190", "utm_est": "518405", "lat": 45.478347, "lng": 9.231667, "location": { "type": "Point", "coordinates": [ 9.231667, 45.478347 ] }, ":@computed_region_6hky_swhk": "4", ":@computed_region_ttgh_9sm5": "4", ":@computed_region_af5v_nc64": "8", "datastop": null }, "geometry": { "type": "Point", "coordinates": [ 9.231667, 45.478347 ] } },
{ "type": "Feature", "properties": { "idsensore": "9991", "nometiposensore": "Ozono", "unitamisura": "µg/m³", "idstazione": "681", "nomestazione": "Moggio Loc. Penscei", "quota": "1194", "provincia": "LC", "comune": "Moggio", "storico": "N", "datastart": "2006-07-12T00:00:00.000", "utm_nord": "5084478", "utm_est": "538586", "lat": 45.91279097, "lng": 9.49754261, "location": { "type": "Point", "coordinates": [ 9.49754261, 45.91279097 ] }, ":@computed_region_6hky_swhk": "10", ":@computed_region_ttgh_9sm5": "10", ":@computed_region_af5v_nc64": "5", "datastop": null }, "geometry": { "type": "Point", "coordinates": [ 9.49754261, 45.91279097 ] } },
{ "type": "Feature", "properties": { "idsensore": "6354", "nometiposensore": "Ossidi di Azoto", "unitamisura": "µg/m³", "idstazione": "548", "nomestazione": "Milano v.Senato", "quota": "118", "provincia": "MI", "comune": "Milano", "storico": "N", "datastart": "1995-04-21T00:00:00.000", "utm_nord": "5035238", "utm_est": "515435", "lat": 45.470501, "lng": 9.19746075, "location": { "type": "Point", "coordinates": [ 9.19746075, 45.470501 ] }, ":@computed_region_6hky_swhk": "4", ":@computed_region_ttgh_9sm5": "4", ":@computed_region_af5v_nc64": "8", "datastop": null }, "geometry": { "type": "Point", "coordinates": [ 9.19746075, 45.470501 ] } },
{ "type": "Feature", "properties": { "idsensore": "6943", "nometiposensore": "PM10 (SM2005)", "unitamisura": "µg/m³", "idstazione": "630", "nomestazione": "Crema v.Indipendenza", "quota": "78", "provincia": "CR", "comune": "Crema", "storico": "S", "datastart": "1999-10-28T00:00:00.000", "utm_nord": "5024212", "utm_est": "553035", "lat": 45.36941556, "lng": 9.67727511, "location": { "type": "Point", "coordinates": [ 9.67727511, 45.36941556 ] }, ":@computed_region_6hky_swhk": "8", ":@computed_region_ttgh_9sm5": "8", ":@computed_region_af5v_nc64": "4", "datastop": "2007-04-03T00:00:00.000" }, "geometry": { "type": "Point", "coordinates": [ 9.67727511, 45.36941556 ] } },
{ "type": "Feature", "properties": { "idsensore": "6915", "nometiposensore": "PM10 (SM2005)", "unitamisura": "µg/m³", "idstazione": "554", "nomestazione": "Saronno v.Santuario", "quota": "212", "provincia": "VA", "comune": "Saronno", "storico": "N", "datastart": "2003-12-16T00:00:00.000", "utm_nord": "5052646", "utm_est": "502058", "lat": 45.62735705, "lng": 9.02640138, "location": { "type": "Point", "coordinates": [ 9.02640138, 45.62735705 ] }, ":@computed_region_6hky_swhk": "1", ":@computed_region_ttgh_9sm5": "1", ":@computed_region_af5v_nc64": "3", "datastop": null }, "geometry": { "type": "Point", "coordinates": [ 9.02640138, 45.62735705 ] } },
{ "type": "Feature", "properties": { "idsensore": "10141", "nometiposensore": "Ossidi di Azoto", "unitamisura": "µg/m³", "idstazione": "701", "nomestazione": "Ostiglia v.Colombo", "quota": "14", "provincia": "MN", "comune": "Ostiglia", "storico": "S", "datastart": "2006-11-29T00:00:00.000", "utm_nord": "4993316", "utm_est": "668216", "lat": 45.07331225, "lng": 11.13703575, "location": { "type": "Point", "coordinates": [ 11.13703575, 45.07331225 ] }, ":@computed_region_6hky_swhk": "9", ":@computed_region_ttgh_9sm5": "9", ":@computed_region_af5v_nc64": "4", "datastop": "2017-01-01T00:00:00.000" }, "geometry": { "type": "Point", "coordinates": [ 11.13703575, 45.07331225 ] } },
{ "type": "Feature", "properties": { "idsensore": "10273", "nometiposensore": "PM10 (SM2005)", "unitamisura": "µg/m³", "idstazione": "705", "nomestazione": "Milano Pascal Città Studi", "quota": "122", "provincia": "MI", "comune": "Milano", "storico": "N", "datastart": "2007-04-21T00:00:00.000", "utm_nord": "5036190", "utm_est": "518405", "lat": 45.478347, "lng": 9.231667, "location": { "type": "Point", "coordinates": [ 9.231667, 45.478347 ] }, ":@computed_region_6hky_swhk": "4", ":@computed_region_ttgh_9sm5": "4", ":@computed_region_af5v_nc64": "8", "datastop": null }, "geometry": { "type": "Point", "coordinates": [ 9.231667, 45.478347 ] } },
{ "type": "Feature", "properties": { "idsensore": "6817", "nometiposensore": "Ossidi di Azoto", "unitamisura": "µg/m³", "idstazione": "656", "nomestazione": "Gambara v.Parma", "quota": "47", "provincia": "BS", "comune": "Gambara", "storico": "N", "datastart": "1990-01-01T00:00:00.000", "utm_nord": "5011493", "utm_est": "601945", "lat": 45.24955194, "lng": 10.29913, "location": { "type": "Point", "coordinates": [ 10.29913, 45.24955194 ] }, ":@computed_region_6hky_swhk": "6", ":@computed_region_ttgh_9sm5": "6", ":@computed_region_af5v_nc64": "2", "datastop": null }, "geometry": { "type": "Point", "coordinates": [ 10.29913, 45.24955194 ] } },
{ "type": "Feature", "properties": { "idsensore": "5593", "nometiposensore": "Biossido di Azoto", "unitamisura": "µg/m³", "idstazione": "590", "nomestazione": "Ponte San Pietro v. Moiolo", "quota": "225", "provincia": "BG", "comune": "Ponte San Pietro", "storico": "S", "datastart": "1990-07-04T00:00:00.000", "utm_nord": "5060449", "utm_est": "545762", "lat": 45.69608872, "lng": 9.58779631, "location": { "type": "Point", "coordinates": [ 9.58779631, 45.69608872 ] }, ":@computed_region_6hky_swhk": "5", ":@computed_region_ttgh_9sm5": "5", ":@computed_region_af5v_nc64": "1", "datastop": "2013-05-26T00:00:00.000" }, "geometry": { "type": "Point", "coordinates": [ 9.58779631, 45.69608872 ] } },
{ "type": "Feature", "properties": { "idsensore": "20441", "nometiposensore": "Ossidi di Azoto", "unitamisura": "µg/m³", "idstazione": "681", "nomestazione": "Moggio Loc. Penscei", "quota": "1194", "provincia": "LC", "comune": "Moggio", "storico": "N", "datastart": "2007-03-17T00:00:00.000", "utm_nord": "5084478", "utm_est": "538586", "lat": 45.91279097, "lng": 9.49754261, "location": { "type": "Point", "coordinates": [ 9.49754261, 45.91279097 ] }, ":@computed_region_6hky_swhk": "10", ":@computed_region_ttgh_9sm5": "10", ":@computed_region_af5v_nc64": "5", "datastop": null }, "geometry": { "type": "Point", "coordinates": [ 9.49754261, 45.91279097 ] } },
{ "type": "Feature", "properties": { "idsensore": "6382", "nometiposensore": "Ossidi di Azoto", "unitamisura": "µg/m³", "idstazione": "569", "nomestazione": "Sondrio v.Mazzini", "quota": "307", "provincia": "SO", "comune": "Sondrio", "storico": "N", "datastart": "1993-11-01T00:00:00.000", "utm_nord": "5113078", "utm_est": "567173", "lat": 46.16797103, "lng": 9.87014581, "location": { "type": "Point", "coordinates": [ 9.87014581, 46.16797103 ] }, ":@computed_region_6hky_swhk": "3", ":@computed_region_ttgh_9sm5": "3", ":@computed_region_af5v_nc64": "7", "datastop": null }, "geometry": { "type": "Point", "coordinates": [ 9.87014581, 46.16797103 ] } },
{ "type": "Feature", "properties": { "idsensore": "10548", "nometiposensore": "PM10 (SM2005)", "unitamisura": "µg/m³", "idstazione": "1269", "nomestazione": "Dalmine v.Verdi", "quota": "207", "provincia": "BG", "comune": "Dalmine", "storico": "N", "datastart": "2010-02-26T00:00:00.000", "utm_nord": "5055304", "utm_est": "546847", "lat": 45.64971, "lng": 9.60123469, "location": { "type": "Point", "coordinates": [ 9.60123469, 45.64971 ] }, ":@computed_region_6hky_swhk": "5", ":@computed_region_ttgh_9sm5": "5", ":@computed_region_af5v_nc64": "1", "datastop": null }, "geometry": { "type": "Point", "coordinates": [ 9.60123469, 45.64971 ] } },
{ "type": "Feature", "properties": { "idsensore": "6921", "nometiposensore": "PM10 (SM2005)", "unitamisura": "µg/m³", "idstazione": "564", "nomestazione": "Erba v. Battisti", "quota": "279", "provincia": "CO", "comune": "Erba", "storico": "S", "datastart": "2009-06-13T00:00:00.000", "utm_nord": "5072803", "utm_est": "517232", "lat": 45.8085738, "lng": 9.2217792, "location": { "type": "Point", "coordinates": [ 9.2217792, 45.8085738 ] }, ":@computed_region_6hky_swhk": "2", ":@computed_region_ttgh_9sm5": "2", ":@computed_region_af5v_nc64": "3", "datastop": "2024-07-11T00:00:00.000" }, "geometry": { "type": "Point", "coordinates": [ 9.2217792, 45.8085738 ] } },
{ "type": "Feature", "properties": { "idsensore": "9833", "nometiposensore": "Benzene", "unitamisura": "µg/m³", "idstazione": "664", "nomestazione": "Mantova p.zza Gramsci", "quota": "18", "provincia": "MN", "comune": "Mantova", "storico": "N", "datastart": "2005-05-16T00:00:00.000", "utm_nord": "5001351", "utm_est": "640031", "lat": 45.15175186, "lng": 10.78141717, "location": { "type": "Point", "coordinates": [ 10.78141717, 45.15175186 ] }, ":@computed_region_6hky_swhk": "9", ":@computed_region_ttgh_9sm5": "9", ":@computed_region_af5v_nc64": "4", "datastop": null }, "geometry": { "type": "Point", "coordinates": [ 10.78141717, 45.15175186 ] } },
{ "type": "Feature", "properties": { "idsensore": "9915", "nometiposensore": "Particelle sospese PM2.5", "unitamisura": "µg/m³", "idstazione": "591", "nomestazione": "Seriate v. Garibaldi", "quota": "256", "provincia": "BG", "comune": "Seriate", "storico": "S", "datastart": "2005-11-28T00:00:00.000", "utm_nord": "5059449", "utm_est": "555672", "lat": 45.68636206, "lng": 9.71495853, "location": { "type": "Point", "coordinates": [ 9.71495853, 45.68636206 ] }, ":@computed_region_6hky_swhk": "5", ":@computed_region_ttgh_9sm5": "5", ":@computed_region_af5v_nc64": "1", "datastop": "2018-07-30T00:00:00.000" }, "geometry": { "type": "Point", "coordinates": [ 9.71495853, 45.68636206 ] } },
{ "type": "Feature", "properties": { "idsensore": "6922", "nometiposensore": "PM10 (SM2005)", "unitamisura": "µg/m³", "idstazione": "566", "nomestazione": "Olgiate Comasco v.Roma", "quota": "404", "provincia": "CO", "comune": "Olgiate Comasco", "storico": "S", "datastart": "1995-02-01T00:00:00.000", "utm_nord": "5070038", "utm_est": "497388", "lat": 45.78389908, "lng": 8.96640489, "location": { "type": "Point", "coordinates": [ 8.96640489, 45.78389908 ] }, ":@computed_region_6hky_swhk": "2", ":@computed_region_ttgh_9sm5": "2", ":@computed_region_af5v_nc64": "3", "datastop": "2010-04-15T00:00:00.000" }, "geometry": { "type": "Point", "coordinates": [ 8.96640489, 45.78389908 ] } },
{ "type": "Feature", "properties": { "idsensore": "10166", "nometiposensore": "Benzene", "unitamisura": "µg/m³", "idstazione": "703", "nomestazione": "Schivenoglia v. Malpasso", "quota": null, "provincia": "MN", "comune": "Schivenoglia", "storico": "N", "datastart": "2006-11-29T00:00:00.000", "utm_nord": "4986922", "utm_est": "663580", "lat": 45.01688067, "lng": 11.07609728, "location": { "type": "Point", "coordinates": [ 11.07609728, 45.01688067 ] }, ":@computed_region_6hky_swhk": "9", ":@computed_region_ttgh_9sm5": "9", ":@computed_region_af5v_nc64": "4", "datastop": null }, "geometry": { "type": "Point", "coordinates": [ 11.07609728, 45.01688067 ] } },
{ "type": "Feature", "properties": { "idsensore": "5643", "nometiposensore": "Biossido di Zolfo", "unitamisura": "µg/m³", "idstazione": "538", "nomestazione": "Settimo Milanese v. Della Libertà", "quota": "132", "provincia": "MI", "comune": "Settimo Milanese", "storico": "S", "datastart": "1992-05-19T00:00:00.000", "utm_nord": "5036306", "utm_est": "504444", "lat": 45.48027247, "lng": 9.05686386, "location": { "type": "Point", "coordinates": [ 9.05686386, 45.48027247 ] }, ":@computed_region_6hky_swhk": "4", ":@computed_region_ttgh_9sm5": "4", ":@computed_region_af5v_nc64": "8", "datastop": "2003-08-26T00:00:00.000" }, "geometry": { "type": "Point", "coordinates": [ 9.05686386, 45.48027247 ] } },
{ "type": "Feature", "properties": { "idsensore": "6414", "nometiposensore": "Monossido di Carbonio", "unitamisura": "mg/m³", "idstazione": "628", "nomestazione": "Cremona p.zza Libertà", "quota": "61", "provincia": "CR", "comune": "Cremona", "storico": "S", "datastart": "1994-11-14T00:00:00.000", "utm_nord": "4998730", "utm_est": "581171", "lat": 45.13738208, "lng": 10.03237064, "location": { "type": "Point", "coordinates": [ 10.03237064, 45.13738208 ] }, ":@computed_region_6hky_swhk": "8", ":@computed_region_ttgh_9sm5": "8", ":@computed_region_af5v_nc64": "4", "datastop": "2006-04-04T00:00:00.000" }, "geometry": { "type": "Point", "coordinates": [ 10.03237064, 45.13738208 ] } },
{ "type": "Feature", "properties": { "idsensore": "6810", "nometiposensore": "Particolato Totale Sospeso", "unitamisura": "µg/m³", "idstazione": "655", "nomestazione": "Darfo Boario Terme v. De Amicis", "quota": "221", "provincia": "BS", "comune": "Darfo Boario Terme", "storico": "S", "datastart": "1999-01-01T00:00:00.000", "utm_nord": "5080789", "utm_est": "591371", "lat": 45.87460256, "lng": 10.17736553, "location": { "type": "Point", "coordinates": [ 10.17736553, 45.87460256 ] }, ":@computed_region_6hky_swhk": "6", ":@computed_region_ttgh_9sm5": "6", ":@computed_region_af5v_nc64": "7", "datastop": "2004-07-15T00:00:00.000" }, "geometry": { "type": "Point", "coordinates": [ 10.17736553, 45.87460256 ] } },
{ "type": "Feature", "properties": { "idsensore": "5619", "nometiposensore": "Biossido di Zolfo", "unitamisura": "µg/m³", "idstazione": "544", "nomestazione": "Cormano v. Edison", "quota": "153", "provincia": "MI", "comune": "Cormano", "storico": "S", "datastart": "1994-10-26T00:00:00.000", "utm_nord": "5044180", "utm_est": "512693", "lat": 45.547597, "lng": 9.166983, "location": { "type": "Point", "coordinates": [ 9.166983, 45.547597 ] }, ":@computed_region_6hky_swhk": "4", ":@computed_region_ttgh_9sm5": "4", ":@computed_region_af5v_nc64": "8", "datastop": "2023-09-16T00:00:00.000" }, "geometry": { "type": "Point", "coordinates": [ 9.166983, 45.547597 ] } },
{ "type": "Feature", "properties": { "idsensore": "9984", "nometiposensore": "Particelle sospese PM2.5", "unitamisura": "µg/m³", "idstazione": "669", "nomestazione": "Brescia Villaggio Sereno", "quota": "70", "provincia": "BS", "comune": "Brescia", "storico": "N", "datastart": "2006-06-06T00:00:00.000", "utm_nord": "5040636", "utm_est": "593101", "lat": 45.51306214, "lng": 10.19190606, "location": { "type": "Point", "coordinates": [ 10.19190606, 45.51306214 ] }, ":@computed_region_6hky_swhk": "6", ":@computed_region_ttgh_9sm5": "6", ":@computed_region_af5v_nc64": "2", "datastop": null }, "geometry": { "type": "Point", "coordinates": [ 10.19190606, 45.51306214 ] } },
{ "type": "Feature", "properties": { "idsensore": "6358", "nometiposensore": "Ossidi di Azoto", "unitamisura": "µg/m³", "idstazione": "538", "nomestazione": "Settimo Milanese v. Della Libertà", "quota": "132", "provincia": "MI", "comune": "Settimo Milanese", "storico": "S", "datastart": "1992-05-27T00:00:00.000", "utm_nord": "5036306", "utm_est": "504444", "lat": 45.48027247, "lng": 9.05686386, "location": { "type": "Point", "coordinates": [ 9.05686386, 45.48027247 ] }, ":@computed_region_6hky_swhk": "4", ":@computed_region_ttgh_9sm5": "4", ":@computed_region_af5v_nc64": "8", "datastop": "2018-07-30T00:00:00.000" }, "geometry": { "type": "Point", "coordinates": [ 9.05686386, 45.48027247 ] } },
{ "type": "Feature", "properties": { "idsensore": "12598", "nometiposensore": "Piombo", "unitamisura": "ng/m³", "idstazione": "609", "nomestazione": "Casirate d'Adda v. Cimitero", "quota": "108", "provincia": "BG", "comune": "Casirate d'Adda", "storico": "N", "datastart": "2008-04-24T00:00:00.000", "utm_nord": "5038450", "utm_est": "543458", "lat": 45.49822794, "lng": 9.55624181, "location": { "type": "Point", "coordinates": [ 9.55624181, 45.49822794 ] }, ":@computed_region_6hky_swhk": "5", ":@computed_region_ttgh_9sm5": "5", ":@computed_region_af5v_nc64": "1", "datastop": null }, "geometry": { "type": "Point", "coordinates": [ 9.55624181, 45.49822794 ] } },
{ "type": "Feature", "properties": { "idsensore": "12583", "nometiposensore": "Ammoniaca", "unitamisura": "µg/m³", "idstazione": "1303", "nomestazione": "Cremona v.Gerre Borghi", "quota": "36", "provincia": "CR", "comune": "Cremona", "storico": "S", "datastart": "2012-01-01T00:00:00.000", "utm_nord": "4995675", "utm_est": "584111", "lat": 45.10954275, "lng": 10.06924181, "location": { "type": "Point", "coordinates": [ 10.06924181, 45.10954275 ] }, ":@computed_region_6hky_swhk": "8", ":@computed_region_ttgh_9sm5": "8", ":@computed_region_af5v_nc64": "4", "datastop": "2017-01-01T00:00:00.000" }, "geometry": { "type": "Point", "coordinates": [ 10.06924181, 45.10954275 ] } },
{ "type": "Feature", "properties": { "idsensore": "10516", "nometiposensore": "Biossido di Zolfo", "unitamisura": "µg/m³", "idstazione": "671", "nomestazione": "Mantova Tridolino", "quota": "22", "provincia": "MN", "comune": "Mantova", "storico": "S", "datastart": "2010-03-30T00:00:00.000", "utm_nord": "5001664", "utm_est": "646147", "lat": 45.153328, "lng": 10.859272, "location": { "type": "Point", "coordinates": [ 10.859272, 45.153328 ] }, ":@computed_region_6hky_swhk": "9", ":@computed_region_ttgh_9sm5": "9", ":@computed_region_af5v_nc64": "4", "datastop": "2024-01-31T00:00:00.000" }, "geometry": { "type": "Point", "coordinates": [ 10.859272, 45.153328 ] } },
{ "type": "Feature", "properties": { "idsensore": "20042", "nometiposensore": "Ammoniaca", "unitamisura": "µg/m³", "idstazione": "703", "nomestazione": "Schivenoglia v. Malpasso", "quota": null, "provincia": "MN", "comune": "Schivenoglia", "storico": "N", "datastart": "2013-10-24T00:00:00.000", "utm_nord": "4986922", "utm_est": "663580", "lat": 45.01688067, "lng": 11.07609728, "location": { "type": "Point", "coordinates": [ 11.07609728, 45.01688067 ] }, ":@computed_region_6hky_swhk": "9", ":@computed_region_ttgh_9sm5": "9", ":@computed_region_af5v_nc64": "4", "datastop": null }, "geometry": { "type": "Point", "coordinates": [ 11.07609728, 45.01688067 ] } },
{ "type": "Feature", "properties": { "idsensore": "10070", "nometiposensore": "Biossido di Zolfo", "unitamisura": "µg/m³", "idstazione": "693", "nomestazione": "Sannazzaro de' Burgondi v.Traversi", "quota": "85", "provincia": "PV", "comune": "Sannazzaro de' Burgondi", "storico": "N", "datastart": "2007-01-01T00:00:00.000", "utm_nord": "4994371", "utm_est": "492461", "lat": 45.10277464, "lng": 8.90418742, "location": { "type": "Point", "coordinates": [ 8.90418742, 45.10277464 ] }, ":@computed_region_6hky_swhk": "7", ":@computed_region_ttgh_9sm5": "7", ":@computed_region_af5v_nc64": "6", "datastop": null }, "geometry": { "type": "Point", "coordinates": [ 8.90418742, 45.10277464 ] } },
{ "type": "Feature", "properties": { "idsensore": "12531", "nometiposensore": "PM10 (SM2005)", "unitamisura": "µg/m³", "idstazione": "1297", "nomestazione": "Spinadesco v.Battisti", "quota": "48", "provincia": "CR", "comune": "Spinadesco", "storico": "N", "datastart": "2011-02-16T00:00:00.000", "utm_nord": "5000087", "utm_est": "573153", "lat": 45.15047339, "lng": 9.93059842, "location": { "type": "Point", "coordinates": [ 9.93059842, 45.15047339 ] }, ":@computed_region_6hky_swhk": "8", ":@computed_region_ttgh_9sm5": "8", ":@computed_region_af5v_nc64": "4", "datastop": null }, "geometry": { "type": "Point", "coordinates": [ 9.93059842, 45.15047339 ] } },
{ "type": "Feature", "properties": { "idsensore": "10173", "nometiposensore": "PM10 (SM2005)", "unitamisura": "µg/m³", "idstazione": "703", "nomestazione": "Schivenoglia v. Malpasso", "quota": null, "provincia": "MN", "comune": "Schivenoglia", "storico": "N", "datastart": "2007-01-01T00:00:00.000", "utm_nord": "4986922", "utm_est": "663580", "lat": 45.01688067, "lng": 11.07609728, "location": { "type": "Point", "coordinates": [ 11.07609728, 45.01688067 ] }, ":@computed_region_6hky_swhk": "9", ":@computed_region_ttgh_9sm5": "9", ":@computed_region_af5v_nc64": "4", "datastop": null }, "geometry": { "type": "Point", "coordinates": [ 11.07609728, 45.01688067 ] } },
{ "type": "Feature", "properties": { "idsensore": "6951", "nometiposensore": "PM10 (SM2005)", "unitamisura": "µg/m³", "idstazione": "649", "nomestazione": "Brescia v.Broletto", "quota": "149", "provincia": "BS", "comune": "Brescia", "storico": "N", "datastart": "2000-09-23T00:00:00.000", "utm_nord": "5043674", "utm_est": "595467", "lat": 45.54006456, "lng": 10.22281989, "location": { "type": "Point", "coordinates": [ 10.22281989, 45.54006456 ] }, ":@computed_region_6hky_swhk": "6", ":@computed_region_ttgh_9sm5": "6", ":@computed_region_af5v_nc64": "2", "datastop": null }, "geometry": { "type": "Point", "coordinates": [ 10.22281989, 45.54006456 ] } },
{ "type": "Feature", "properties": { "idsensore": "20197", "nometiposensore": "PM10 (SM2005)", "unitamisura": "µg/m³", "idstazione": "598", "nomestazione": "San Rocco al Porto v.Matteotti", "quota": "50", "provincia": "LO", "comune": "San Rocco al Porto", "storico": "N", "datastart": "2002-01-01T00:00:00.000", "utm_nord": "4992297", "utm_est": "555154", "lat": 45.08199189, "lng": 9.70079278, "location": { "type": "Point", "coordinates": [ 9.70079278, 45.08199189 ] }, ":@computed_region_6hky_swhk": "11", ":@computed_region_ttgh_9sm5": "11", ":@computed_region_af5v_nc64": "8", "datastop": null }, "geometry": { "type": "Point", "coordinates": [ 9.70079278, 45.08199189 ] } },
{ "type": "Feature", "properties": { "idsensore": "12637", "nometiposensore": "Nikel", "unitamisura": "ng/m³", "idstazione": "548", "nomestazione": "Milano v.Senato", "quota": "118", "provincia": "MI", "comune": "Milano", "storico": "N", "datastart": "2008-07-09T00:00:00.000", "utm_nord": "5035238", "utm_est": "515435", "lat": 45.470501, "lng": 9.19746075, "location": { "type": "Point", "coordinates": [ 9.19746075, 45.470501 ] }, ":@computed_region_6hky_swhk": "4", ":@computed_region_ttgh_9sm5": "4", ":@computed_region_af5v_nc64": "8", "datastop": null }, "geometry": { "type": "Point", "coordinates": [ 9.19746075, 45.470501 ] } },
{ "type": "Feature", "properties": { "idsensore": "6859", "nometiposensore": "Biossido di Azoto", "unitamisura": "µg/m³", "idstazione": "661", "nomestazione": "Rezzato v.De Gasperi", "quota": "147", "provincia": "BS", "comune": "Rezzato", "storico": "N", "datastart": "1992-08-05T00:00:00.000", "utm_nord": "5041110", "utm_est": "604367", "lat": 45.51571417, "lng": 10.33624003, "location": { "type": "Point", "coordinates": [ 10.33624003, 45.51571417 ] }, ":@computed_region_6hky_swhk": "6", ":@computed_region_ttgh_9sm5": "6", ":@computed_region_af5v_nc64": "2", "datastop": null }, "geometry": { "type": "Point", "coordinates": [ 10.33624003, 45.51571417 ] } },
{ "type": "Feature", "properties": { "idsensore": "10279", "nometiposensore": "Biossido di Azoto", "unitamisura": "µg/m³", "idstazione": "705", "nomestazione": "Milano Pascal Città Studi", "quota": "122", "provincia": "MI", "comune": "Milano", "storico": "N", "datastart": "2007-06-16T00:00:00.000", "utm_nord": "5036190", "utm_est": "518405", "lat": 45.478347, "lng": 9.231667, "location": { "type": "Point", "coordinates": [ 9.231667, 45.478347 ] }, ":@computed_region_6hky_swhk": "4", ":@computed_region_ttgh_9sm5": "4", ":@computed_region_af5v_nc64": "8", "datastop": null }, "geometry": { "type": "Point", "coordinates": [ 9.231667, 45.478347 ] } },
{ "type": "Feature", "properties": { "idsensore": "10109", "nometiposensore": "Biossido di Zolfo", "unitamisura": "µg/m³", "idstazione": "698", "nomestazione": "Ceneselli v. Moro", "quota": "13", "provincia": "RO", "comune": "Ceneselli", "storico": "S", "datastart": "2006-11-28T00:00:00.000", "utm_nord": "4987161", "utm_est": "686934", "lat": 45.013458, "lng": 11.372581, "location": { "type": "Point", "coordinates": [ 11.372581, 45.013458 ] }, ":@computed_region_6hky_swhk": null, ":@computed_region_ttgh_9sm5": null, ":@computed_region_af5v_nc64": null, "datastop": "2018-01-01T00:00:00.000" }, "geometry": { "type": "Point", "coordinates": [ 11.372581, 45.013458 ] } },
{ "type": "Feature", "properties": { "idsensore": "30163", "nometiposensore": "Biossido di Azoto", "unitamisura": "µg/m³", "idstazione": "669", "nomestazione": "Brescia Villaggio Sereno", "quota": "70", "provincia": "BS", "comune": "Brescia", "storico": "N", "datastart": "2013-12-13T00:00:00.000", "utm_nord": "5040636", "utm_est": "593101", "lat": 45.51306214, "lng": 10.19190606, "location": { "type": "Point", "coordinates": [ 10.19190606, 45.51306214 ] }, ":@computed_region_6hky_swhk": "6", ":@computed_region_ttgh_9sm5": "6", ":@computed_region_af5v_nc64": "2", "datastop": null }, "geometry": { "type": "Point", "coordinates": [ 10.19190606, 45.51306214 ] } },
{ "type": "Feature", "properties": { "idsensore": "6777", "nometiposensore": "Monossido di Carbonio", "unitamisura": "mg/m³", "idstazione": "651", "nomestazione": "Brescia v.Triumplina", "quota": "175", "provincia": "BS", "comune": "Brescia", "storico": "S", "datastart": "1999-01-15T00:00:00.000", "utm_nord": "5047187", "utm_est": "596090", "lat": 45.57159144, "lng": 10.23148892, "location": { "type": "Point", "coordinates": [ 10.23148892, 45.57159144 ] }, ":@computed_region_6hky_swhk": "6", ":@computed_region_ttgh_9sm5": "6", ":@computed_region_af5v_nc64": "2", "datastop": "2005-10-19T00:00:00.000" }, "geometry": { "type": "Point", "coordinates": [ 10.23148892, 45.57159144 ] } },
{ "type": "Feature", "properties": { "idsensore": "9918", "nometiposensore": "Ossidi di Azoto", "unitamisura": "µg/m³", "idstazione": "664", "nomestazione": "Mantova p.zza Gramsci", "quota": "18", "provincia": "MN", "comune": "Mantova", "storico": "N", "datastart": "2004-06-08T00:00:00.000", "utm_nord": "5001351", "utm_est": "640031", "lat": 45.15175186, "lng": 10.78141717, "location": { "type": "Point", "coordinates": [ 10.78141717, 45.15175186 ] }, ":@computed_region_6hky_swhk": "9", ":@computed_region_ttgh_9sm5": "9", ":@computed_region_af5v_nc64": "4", "datastop": null }, "geometry": { "type": "Point", "coordinates": [ 10.78141717, 45.15175186 ] } },
{ "type": "Feature", "properties": { "idsensore": "5618", "nometiposensore": "Biossido di Zolfo", "unitamisura": "µg/m³", "idstazione": "529", "nomestazione": "Cinisello Balsamo v.Lincoln", "quota": "149", "provincia": "MI", "comune": "Cinisello Balsamo", "storico": "S", "datastart": "1988-08-10T00:00:00.000", "utm_nord": "5044335", "utm_est": "517778", "lat": 45.55232831, "lng": 9.22776572, "location": { "type": "Point", "coordinates": [ 9.22776572, 45.55232831 ] }, ":@computed_region_6hky_swhk": "4", ":@computed_region_ttgh_9sm5": "4", ":@computed_region_af5v_nc64": "8", "datastop": "1999-05-04T00:00:00.000" }, "geometry": { "type": "Point", "coordinates": [ 9.22776572, 45.55232831 ] } },
{ "type": "Feature", "properties": { "idsensore": "5744", "nometiposensore": "Ozono", "unitamisura": "µg/m³", "idstazione": "555", "nomestazione": "Busto Arsizio v.Magenta", "quota": "222", "provincia": "VA", "comune": "Busto Arsizio", "storico": "S", "datastart": "1991-05-25T00:00:00.000", "utm_nord": "5050810", "utm_est": "488313", "lat": 45.61073922, "lng": 8.850121, "location": { "type": "Point", "coordinates": [ 8.850121, 45.61073922 ] }, ":@computed_region_6hky_swhk": "1", ":@computed_region_ttgh_9sm5": "1", ":@computed_region_af5v_nc64": "3", "datastop": "2018-01-01T00:00:00.000" }, "geometry": { "type": "Point", "coordinates": [ 8.850121, 45.61073922 ] } },
{ "type": "Feature", "properties": { "idsensore": "20771", "nometiposensore": "Ammoniaca", "unitamisura": "µg/m³", "idstazione": "683", "nomestazione": "Cassano d'Adda 2-v.Milano", "quota": "133", "provincia": "MI", "comune": "Cassano d'Adda", "storico": "N", "datastart": "2024-03-29T00:00:00.000", "utm_nord": "5041567", "utm_est": "540293", "lat": 45.52647322, "lng": 9.515991, "location": { "type": "Point", "coordinates": [ 9.515991, 45.52647322 ] }, ":@computed_region_6hky_swhk": "4", ":@computed_region_ttgh_9sm5": "4", ":@computed_region_af5v_nc64": "8", "datastop": null }, "geometry": { "type": "Point", "coordinates": [ 9.515991, 45.52647322 ] } },
{ "type": "Feature", "properties": { "idsensore": "30159", "nometiposensore": "Ossidi di Azoto", "unitamisura": "µg/m³", "idstazione": "655", "nomestazione": "Darfo Boario Terme v. De Amicis", "quota": "221", "provincia": "BS", "comune": "Darfo Boario Terme", "storico": "S", "datastart": "2013-01-23T00:00:00.000", "utm_nord": "5080789", "utm_est": "591371", "lat": 45.87460256, "lng": 10.17736553, "location": { "type": "Point", "coordinates": [ 10.17736553, 45.87460256 ] }, ":@computed_region_6hky_swhk": "6", ":@computed_region_ttgh_9sm5": "6", ":@computed_region_af5v_nc64": "7", "datastop": "2023-07-12T00:00:00.000" }, "geometry": { "type": "Point", "coordinates": [ 10.17736553, 45.87460256 ] } },
{ "type": "Feature", "properties": { "idsensore": "20596", "nometiposensore": "Particelle sospese PM2.5", "unitamisura": "µg/m³", "idstazione": "517", "nomestazione": "Turbigo", "quota": "141", "provincia": "MI", "comune": "Turbigo", "storico": "N", "datastart": "2023-08-01T00:00:00.000", "utm_nord": "5041480", "utm_est": "479423", "lat": 45.52655611, "lng": 8.73650211, "location": { "type": "Point", "coordinates": [ 8.73650211, 45.52655611 ] }, ":@computed_region_6hky_swhk": "4", ":@computed_region_ttgh_9sm5": "4", ":@computed_region_af5v_nc64": "8", "datastop": null }, "geometry": { "type": "Point", "coordinates": [ 8.73650211, 45.52655611 ] } },
{ "type": "Feature", "properties": { "idsensore": "5844", "nometiposensore": "Monossido di Carbonio", "unitamisura": "mg/m³", "idstazione": "572", "nomestazione": "Morbegno v.Cortivacci", "quota": "262", "provincia": "SO", "comune": "Morbegno", "storico": "S", "datastart": "1999-01-13T00:00:00.000", "utm_nord": "5108901", "utm_est": "543736", "lat": 46.135486, "lng": 9.56624, "location": { "type": "Point", "coordinates": [ 9.56624, 46.135486 ] }, ":@computed_region_6hky_swhk": "3", ":@computed_region_ttgh_9sm5": "3", ":@computed_region_af5v_nc64": "7", "datastop": "2023-01-17T00:00:00.000" }, "geometry": { "type": "Point", "coordinates": [ 9.56624, 46.135486 ] } },
{ "type": "Feature", "properties": { "idsensore": "10406", "nometiposensore": "Ossidi di Azoto", "unitamisura": "µg/m³", "idstazione": "1263", "nomestazione": "Villa di Serio v. Glera", "quota": "280", "provincia": "BG", "comune": "Villa di Serio", "storico": "S", "datastart": "2008-10-08T00:00:00.000", "utm_nord": "5064969", "utm_est": "557447", "lat": 45.727881, "lng": 9.738481, "location": { "type": "Point", "coordinates": [ 9.738481, 45.727881 ] }, ":@computed_region_6hky_swhk": "5", ":@computed_region_ttgh_9sm5": "5", ":@computed_region_af5v_nc64": "1", "datastop": "2018-07-30T00:00:00.000" }, "geometry": { "type": "Point", "coordinates": [ 9.738481, 45.727881 ] } },
{ "type": "Feature", "properties": { "idsensore": "5848", "nometiposensore": "Monossido di Carbonio", "unitamisura": "mg/m³", "idstazione": "555", "nomestazione": "Busto Arsizio v.Magenta", "quota": "222", "provincia": "VA", "comune": "Busto Arsizio", "storico": "S", "datastart": "1991-05-25T00:00:00.000", "utm_nord": "5050810", "utm_est": "488313", "lat": 45.61073922, "lng": 8.850121, "location": { "type": "Point", "coordinates": [ 8.850121, 45.61073922 ] }, ":@computed_region_6hky_swhk": "1", ":@computed_region_ttgh_9sm5": "1", ":@computed_region_af5v_nc64": "3", "datastop": "2012-01-03T00:00:00.000" }, "geometry": { "type": "Point", "coordinates": [ 8.850121, 45.61073922 ] } },
{ "type": "Feature", "properties": { "idsensore": "12570", "nometiposensore": "Particelle sospese PM2.5", "unitamisura": "µg/m³", "idstazione": "561", "nomestazione": "Como v.Cattaneo", "quota": "202", "provincia": "CO", "comune": "Como", "storico": "N", "datastart": "2011-09-23T00:00:00.000", "utm_nord": "5073500", "utm_est": "505203", "lat": 45.81504217, "lng": 9.06697886, "location": { "type": "Point", "coordinates": [ 9.06697886, 45.81504217 ] }, ":@computed_region_6hky_swhk": "2", ":@computed_region_ttgh_9sm5": "2", ":@computed_region_af5v_nc64": "3", "datastop": null }, "geometry": { "type": "Point", "coordinates": [ 9.06697886, 45.81504217 ] } },
{ "type": "Feature", "properties": { "idsensore": "6322", "nometiposensore": "Ossidi di Azoto", "unitamisura": "µg/m³", "idstazione": "541", "nomestazione": "Limbiate v. F. Turati", "quota": "181", "provincia": "MB", "comune": "Limbiate", "storico": "S", "datastart": "1994-11-24T00:00:00.000", "utm_nord": "5049330", "utm_est": "509823", "lat": 45.590961, "lng": 9.139417, "location": { "type": "Point", "coordinates": [ 9.139417, 45.590961 ] }, ":@computed_region_6hky_swhk": "12", ":@computed_region_ttgh_9sm5": "12", ":@computed_region_af5v_nc64": "5", "datastop": "2018-07-30T00:00:00.000" }, "geometry": { "type": "Point", "coordinates": [ 9.139417, 45.590961 ] } },
{ "type": "Feature", "properties": { "idsensore": "5578", "nometiposensore": "Biossido di Azoto", "unitamisura": "µg/m³", "idstazione": "575", "nomestazione": "Nibionno v.della Chiesa", "quota": "310", "provincia": "LC", "comune": "Nibionno", "storico": "S", "datastart": "1991-12-20T00:00:00.000", "utm_nord": "5066429", "utm_est": "520613", "lat": 45.75111892, "lng": 9.26502439, "location": { "type": "Point", "coordinates": [ 9.26502439, 45.75111892 ] }, ":@computed_region_6hky_swhk": "10", ":@computed_region_ttgh_9sm5": "10", ":@computed_region_af5v_nc64": "5", "datastop": "2018-07-30T00:00:00.000" }, "geometry": { "type": "Point", "coordinates": [ 9.26502439, 45.75111892 ] } },
{ "type": "Feature", "properties": { "idsensore": "10117", "nometiposensore": "Ossidi di Azoto", "unitamisura": "µg/m³", "idstazione": "699", "nomestazione": "Magnacavallo campo sportivo", "quota": "11", "provincia": "MN", "comune": "Magnacavallo", "storico": "S", "datastart": "2006-11-29T00:00:00.000", "utm_nord": "4985830", "utm_est": "671675", "lat": 45.00514363, "lng": 11.1784001, "location": { "type": "Point", "coordinates": [ 11.1784001, 45.00514363 ] }, ":@computed_region_6hky_swhk": "9", ":@computed_region_ttgh_9sm5": "9", ":@computed_region_af5v_nc64": "4", "datastop": "2018-01-01T00:00:00.000" }, "geometry": { "type": "Point", "coordinates": [ 11.1784001, 45.00514363 ] } },
{ "type": "Feature", "properties": { "idsensore": "17041", "nometiposensore": "Piombo", "unitamisura": "ng/m³", "idstazione": "583", "nomestazione": "Bergamo v.Meucci", "quota": "249", "provincia": "BG", "comune": "Bergamo", "storico": "N", "datastart": "2012-01-13T00:00:00.000", "utm_nord": "5059922", "utm_est": "550116", "lat": 45.69104328, "lng": 9.64366092, "location": { "type": "Point", "coordinates": [ 9.64366092, 45.69104328 ] }, ":@computed_region_6hky_swhk": "5", ":@computed_region_ttgh_9sm5": "5", ":@computed_region_af5v_nc64": "1", "datastop": null }, "geometry": { "type": "Point", "coordinates": [ 9.64366092, 45.69104328 ] } },
{ "type": "Feature", "properties": { "idsensore": "6705", "nometiposensore": "Monossido di Carbonio", "unitamisura": "mg/m³", "idstazione": "643", "nomestazione": "Pavia p.zza Minerva", "quota": "77", "provincia": "PV", "comune": "Pavia", "storico": "N", "datastart": "2002-03-03T00:00:00.000", "utm_nord": "5003660", "utm_est": "511522", "lat": 45.18633544, "lng": 9.14667703, "location": { "type": "Point", "coordinates": [ 9.14667703, 45.18633544 ] }, ":@computed_region_6hky_swhk": "7", ":@computed_region_ttgh_9sm5": "7", ":@computed_region_af5v_nc64": "6", "datastop": null }, "geometry": { "type": "Point", "coordinates": [ 9.14667703, 45.18633544 ] } },
{ "type": "Feature", "properties": { "idsensore": "5514", "nometiposensore": "Biossido di Azoto", "unitamisura": "µg/m³", "idstazione": "511", "nomestazione": "Abbiategrasso v. Serafino Dell'Uomo", "quota": "118", "provincia": "MI", "comune": "Abbiategrasso", "storico": "S", "datastart": "1998-01-23T00:00:00.000", "utm_nord": "5026880", "utm_est": "493223", "lat": 45.39541003, "lng": 8.91341828, "location": { "type": "Point", "coordinates": [ 8.91341828, 45.39541003 ] }, ":@computed_region_6hky_swhk": "4", ":@computed_region_ttgh_9sm5": "4", ":@computed_region_af5v_nc64": "8", "datastop": "2018-07-30T00:00:00.000" }, "geometry": { "type": "Point", "coordinates": [ 8.91341828, 45.39541003 ] } },
{ "type": "Feature", "properties": { "idsensore": "5708", "nometiposensore": "Ozono", "unitamisura": "µg/m³", "idstazione": "536", "nomestazione": "Arese v. Matteotti", "quota": "157", "provincia": "MI", "comune": "Arese", "storico": "S", "datastart": "1995-10-03T00:00:00.000", "utm_nord": "5043325", "utm_est": "506302", "lat": 45.54343664, "lng": 9.08072867, "location": { "type": "Point", "coordinates": [ 9.08072867, 45.54343664 ] }, ":@computed_region_6hky_swhk": "4", ":@computed_region_ttgh_9sm5": "4", ":@computed_region_af5v_nc64": "8", "datastop": "2018-01-01T00:00:00.000" }, "geometry": { "type": "Point", "coordinates": [ 9.08072867, 45.54343664 ] } },
{ "type": "Feature", "properties": { "idsensore": "6657", "nometiposensore": "Particolato Totale Sospeso", "unitamisura": "µg/m³", "idstazione": "552", "nomestazione": "Varese v.Vidoletti", "quota": "425", "provincia": "VA", "comune": "Varese", "storico": "S", "datastart": "1991-12-30T00:00:00.000", "utm_nord": "5075945", "utm_est": "484773", "lat": 45.83690178, "lng": 8.80393513, "location": { "type": "Point", "coordinates": [ 8.80393513, 45.83690178 ] }, ":@computed_region_6hky_swhk": "1", ":@computed_region_ttgh_9sm5": "1", ":@computed_region_af5v_nc64": "3", "datastop": "2006-04-30T00:00:00.000" }, "geometry": { "type": "Point", "coordinates": [ 8.80393513, 45.83690178 ] } },
{ "type": "Feature", "properties": { "idsensore": "6617", "nometiposensore": "Particolato Totale Sospeso", "unitamisura": "µg/m³", "idstazione": "587", "nomestazione": "Casnigo via Europa", "quota": "514", "provincia": "BG", "comune": "Casnigo", "storico": "S", "datastart": "1989-11-08T00:00:00.000", "utm_nord": "5073819", "utm_est": "567412", "lat": 45.81464142, "lng": 9.86771003, "location": { "type": "Point", "coordinates": [ 9.86771003, 45.81464142 ] }, ":@computed_region_6hky_swhk": "5", ":@computed_region_ttgh_9sm5": "5", ":@computed_region_af5v_nc64": "1", "datastop": "2003-01-03T00:00:00.000" }, "geometry": { "type": "Point", "coordinates": [ 9.86771003, 45.81464142 ] } },
{ "type": "Feature", "properties": { "idsensore": "9996", "nometiposensore": "Ossidi di Azoto", "unitamisura": "µg/m³", "idstazione": "682", "nomestazione": "Ferrera Erbognone ENI", "quota": "88", "provincia": "PV", "comune": "Ferrera Erbognone", "storico": "N", "datastart": "2006-01-21T00:00:00.000", "utm_nord": "4995567", "utm_est": "490094", "lat": 45.11351117, "lng": 8.87407772, "location": { "type": "Point", "coordinates": [ 8.87407772, 45.11351117 ] }, ":@computed_region_6hky_swhk": "7", ":@computed_region_ttgh_9sm5": "7", ":@computed_region_af5v_nc64": "6", "datastop": null }, "geometry": { "type": "Point", "coordinates": [ 8.87407772, 45.11351117 ] } },
{ "type": "Feature", "properties": { "idsensore": "5513", "nometiposensore": "Biossido di Azoto", "unitamisura": "µg/m³", "idstazione": "510", "nomestazione": "Inzago v.le Gramsci", "quota": "138", "provincia": "MI", "comune": "Inzago", "storico": "S", "datastart": "1991-01-01T00:00:00.000", "utm_nord": "5043030", "utm_est": "538012", "lat": 45.53976956, "lng": 9.48689669, "location": { "type": "Point", "coordinates": [ 9.48689669, 45.53976956 ] }, ":@computed_region_6hky_swhk": "4", ":@computed_region_ttgh_9sm5": "4", ":@computed_region_af5v_nc64": "8", "datastop": "2018-01-01T00:00:00.000" }, "geometry": { "type": "Point", "coordinates": [ 9.48689669, 45.53976956 ] } },
{ "type": "Feature", "properties": { "idsensore": "5837", "nometiposensore": "Monossido di Carbonio", "unitamisura": "mg/m³", "idstazione": "513", "nomestazione": "Trezzo sull'Adda v.Nenni", "quota": "199", "provincia": "MI", "comune": "Trezzo sull'Adda", "storico": "S", "datastart": "2001-02-22T00:00:00.000", "utm_nord": "5051253", "utm_est": "539618", "lat": 45.61370028, "lng": 9.508134, "location": { "type": "Point", "coordinates": [ 9.508134, 45.61370028 ] }, ":@computed_region_6hky_swhk": "4", ":@computed_region_ttgh_9sm5": "4", ":@computed_region_af5v_nc64": "8", "datastop": "2017-01-01T00:00:00.000" }, "geometry": { "type": "Point", "coordinates": [ 9.508134, 45.61370028 ] } },
{ "type": "Feature", "properties": { "idsensore": "6370", "nometiposensore": "Ossidi di Azoto", "unitamisura": "µg/m³", "idstazione": "543", "nomestazione": "Vimercate v. dell'Ospedale", "quota": "194", "provincia": "MB", "comune": "Vimercate", "storico": "S", "datastart": "1994-12-23T00:00:00.000", "utm_nord": "5051330", "utm_est": "528723", "lat": 45.611744, "lng": 9.3677, "location": { "type": "Point", "coordinates": [ 9.3677, 45.611744 ] }, ":@computed_region_6hky_swhk": "12", ":@computed_region_ttgh_9sm5": "12", ":@computed_region_af5v_nc64": "5", "datastop": "2018-07-30T00:00:00.000" }, "geometry": { "type": "Point", "coordinates": [ 9.3677, 45.611744 ] } },
{ "type": "Feature", "properties": { "idsensore": "5823", "nometiposensore": "Monossido di Carbonio", "unitamisura": "mg/m³", "idstazione": "539", "nomestazione": "Milano v.Liguria", "quota": "115", "provincia": "MI", "comune": "Milano", "storico": "S", "datastart": "1991-10-20T00:00:00.000", "utm_nord": "5032273", "utm_est": "513134", "lat": 45.44386047, "lng": 9.16794489, "location": { "type": "Point", "coordinates": [ 9.16794489, 45.44386047 ] }, ":@computed_region_6hky_swhk": "4", ":@computed_region_ttgh_9sm5": "4", ":@computed_region_af5v_nc64": "8", "datastop": "2023-10-03T00:00:00.000" }, "geometry": { "type": "Point", "coordinates": [ 9.16794489, 45.44386047 ] } },
{ "type": "Feature", "properties": { "idsensore": "5605", "nometiposensore": "Biossido di Azoto", "unitamisura": "µg/m³", "idstazione": "602", "nomestazione": "Melegnano v.Predabissi", "quota": "83", "provincia": "MI", "comune": "Melegnano", "storico": "S", "datastart": "2000-01-13T00:00:00.000", "utm_nord": "5022361", "utm_est": "525789", "lat": 45.35428881, "lng": 9.32924395, "location": { "type": "Point", "coordinates": [ 9.32924395, 45.35428881 ] }, ":@computed_region_6hky_swhk": "4", ":@computed_region_ttgh_9sm5": "4", ":@computed_region_af5v_nc64": "8", "datastop": null }, "geometry": { "type": "Point", "coordinates": [ 9.32924395, 45.35428881 ] } },
{ "type": "Feature", "properties": { "idsensore": "10290", "nometiposensore": "PM10 (SM2005)", "unitamisura": "µg/m³", "idstazione": "706", "nomestazione": "Lecco v.Sora", "quota": "272", "provincia": "LC", "comune": "Lecco", "storico": "N", "datastart": "2000-12-31T00:00:00.000", "utm_nord": "5078987", "utm_est": "531045", "lat": 45.86375372, "lng": 9.39995481, "location": { "type": "Point", "coordinates": [ 9.39995481, 45.86375372 ] }, ":@computed_region_6hky_swhk": "10", ":@computed_region_ttgh_9sm5": "10", ":@computed_region_af5v_nc64": "5", "datastop": null }, "geometry": { "type": "Point", "coordinates": [ 9.39995481, 45.86375372 ] } },
{ "type": "Feature", "properties": { "idsensore": "6782", "nometiposensore": "Monossido di Carbonio", "unitamisura": "mg/m³", "idstazione": "652", "nomestazione": "Brescia v.Turati", "quota": "154", "provincia": "BS", "comune": "Brescia", "storico": "N", "datastart": "1999-01-12T00:00:00.000", "utm_nord": "5043626", "utm_est": "596168", "lat": 45.53953611, "lng": 10.23178722, "location": { "type": "Point", "coordinates": [ 10.23178722, 45.53953611 ] }, ":@computed_region_6hky_swhk": "6", ":@computed_region_ttgh_9sm5": "6", ":@computed_region_af5v_nc64": "2", "datastop": null }, "geometry": { "type": "Point", "coordinates": [ 10.23178722, 45.53953611 ] } },
{ "type": "Feature", "properties": { "idsensore": "20684", "nometiposensore": "Ammoniaca", "unitamisura": "µg/m³", "idstazione": "1374", "nomestazione": "Monza Parco", "quota": "181", "provincia": "MB", "comune": "Monza", "storico": "N", "datastart": "2023-12-22T00:00:00.000", "utm_nord": "5049780", "utm_est": "521452", "lat": 45.603072, "lng": 9.276156, "location": { "type": "Point", "coordinates": [ 9.276156, 45.603072 ] }, ":@computed_region_6hky_swhk": "12", ":@computed_region_ttgh_9sm5": "12", ":@computed_region_af5v_nc64": "5", "datastop": null }, "geometry": { "type": "Point", "coordinates": [ 9.276156, 45.603072 ] } },
{ "type": "Feature", "properties": { "idsensore": "5750", "nometiposensore": "Ozono", "unitamisura": "µg/m³", "idstazione": "552", "nomestazione": "Varese v.Vidoletti", "quota": "425", "provincia": "VA", "comune": "Varese", "storico": "N", "datastart": "1991-12-23T00:00:00.000", "utm_nord": "5075945", "utm_est": "484773", "lat": 45.83690178, "lng": 8.80393513, "location": { "type": "Point", "coordinates": [ 8.80393513, 45.83690178 ] }, ":@computed_region_6hky_swhk": "1", ":@computed_region_ttgh_9sm5": "1", ":@computed_region_af5v_nc64": "3", "datastop": null }, "geometry": { "type": "Point", "coordinates": [ 8.80393513, 45.83690178 ] } },
{ "type": "Feature", "properties": { "idsensore": "5851", "nometiposensore": "Monossido di Carbonio", "unitamisura": "mg/m³", "idstazione": "559", "nomestazione": "Somma Lombardo v.Facchinetti", "quota": "210", "provincia": "VA", "comune": "Somma Lombardo", "storico": "S", "datastart": "2000-03-20T00:00:00.000", "utm_nord": "5055150", "utm_est": "477613", "lat": 45.64954097, "lng": 8.71269853, "location": { "type": "Point", "coordinates": [ 8.71269853, 45.64954097 ] }, ":@computed_region_6hky_swhk": "1", ":@computed_region_ttgh_9sm5": "1", ":@computed_region_af5v_nc64": "3", "datastop": "2012-01-04T00:00:00.000" }, "geometry": { "type": "Point", "coordinates": [ 8.71269853, 45.64954097 ] } },
{ "type": "Feature", "properties": { "idsensore": "10433", "nometiposensore": "Biossido di Zolfo", "unitamisura": "µg/m³", "idstazione": "1264", "nomestazione": "Sondrio v.Paribelli", "quota": "290", "provincia": "SO", "comune": "Sondrio", "storico": "S", "datastart": "2009-01-04T00:00:00.000", "utm_nord": "5113073", "utm_est": "567873", "lat": 46.16785664, "lng": 9.87921169, "location": { "type": "Point", "coordinates": [ 9.87921169, 46.16785664 ] }, ":@computed_region_6hky_swhk": "3", ":@computed_region_ttgh_9sm5": "3", ":@computed_region_af5v_nc64": "7", "datastop": "2012-01-04T00:00:00.000" }, "geometry": { "type": "Point", "coordinates": [ 9.87921169, 46.16785664 ] } },
{ "type": "Feature", "properties": { "idsensore": "10547", "nometiposensore": "Particelle sospese PM2.5", "unitamisura": "µg/m³", "idstazione": "1269", "nomestazione": "Dalmine v.Verdi", "quota": "207", "provincia": "BG", "comune": "Dalmine", "storico": "N", "datastart": "2010-02-26T00:00:00.000", "utm_nord": "5055304", "utm_est": "546847", "lat": 45.64971, "lng": 9.60123469, "location": { "type": "Point", "coordinates": [ 9.60123469, 45.64971 ] }, ":@computed_region_6hky_swhk": "5", ":@computed_region_ttgh_9sm5": "5", ":@computed_region_af5v_nc64": "1", "datastop": null }, "geometry": { "type": "Point", "coordinates": [ 9.60123469, 45.64971 ] } },
{ "type": "Feature", "properties": { "idsensore": "10474", "nometiposensore": "Benzene", "unitamisura": "µg/m³", "idstazione": "1267", "nomestazione": "Turano Lodigiano v. Gramsci", "quota": "65", "provincia": "LO", "comune": "Turano Lodigiano", "storico": "S", "datastart": "2010-01-01T00:00:00.000", "utm_nord": "5010942", "utm_est": "548751", "lat": 45.25028636, "lng": 9.62126692, "location": { "type": "Point", "coordinates": [ 9.62126692, 45.25028636 ] }, ":@computed_region_6hky_swhk": "11", ":@computed_region_ttgh_9sm5": "11", ":@computed_region_af5v_nc64": "8", "datastop": "2017-03-31T00:00:00.000" }, "geometry": { "type": "Point", "coordinates": [ 9.62126692, 45.25028636 ] } },
{ "type": "Feature", "properties": { "idsensore": "5665", "nometiposensore": "Biossido di Zolfo", "unitamisura": "µg/m³", "idstazione": "595", "nomestazione": "Filago v.Don Milani", "quota": "190", "provincia": "BG", "comune": "Filago", "storico": "N", "datastart": "1991-12-07T00:00:00.000", "utm_nord": "5053519", "utm_est": "543342", "lat": 45.63387247, "lng": 9.55609572, "location": { "type": "Point", "coordinates": [ 9.55609572, 45.63387247 ] }, ":@computed_region_6hky_swhk": "5", ":@computed_region_ttgh_9sm5": "5", ":@computed_region_af5v_nc64": "1", "datastop": null }, "geometry": { "type": "Point", "coordinates": [ 9.55609572, 45.63387247 ] } },
{ "type": "Feature", "properties": { "idsensore": "5738", "nometiposensore": "Ozono", "unitamisura": "µg/m³", "idstazione": "607", "nomestazione": "Abbadia Cerreto v. Fanfulla", "quota": "64", "provincia": "LO", "comune": "Abbadia Cerreto", "storico": "N", "datastart": "2001-04-10T00:00:00.000", "utm_nord": "5017500", "utm_est": "545920", "lat": 45.30950506, "lng": 9.58580022, "location": { "type": "Point", "coordinates": [ 9.58580022, 45.30950506 ] }, ":@computed_region_6hky_swhk": "11", ":@computed_region_ttgh_9sm5": "11", ":@computed_region_af5v_nc64": "8", "datastop": null }, "geometry": { "type": "Point", "coordinates": [ 9.58580022, 45.30950506 ] } },
{ "type": "Feature", "properties": { "idsensore": "10143", "nometiposensore": "Biossido di Azoto", "unitamisura": "µg/m³", "idstazione": "701", "nomestazione": "Ostiglia v.Colombo", "quota": "14", "provincia": "MN", "comune": "Ostiglia", "storico": "S", "datastart": "2006-11-29T00:00:00.000", "utm_nord": "4993316", "utm_est": "668216", "lat": 45.07331225, "lng": 11.13703575, "location": { "type": "Point", "coordinates": [ 11.13703575, 45.07331225 ] }, ":@computed_region_6hky_swhk": "9", ":@computed_region_ttgh_9sm5": "9", ":@computed_region_af5v_nc64": "4", "datastop": "2017-01-01T00:00:00.000" }, "geometry": { "type": "Point", "coordinates": [ 11.13703575, 45.07331225 ] } },
{ "type": "Feature", "properties": { "idsensore": "5620", "nometiposensore": "Biossido di Zolfo", "unitamisura": "µg/m³", "idstazione": "525", "nomestazione": "Corsico v.le Italia", "quota": "119", "provincia": "MI", "comune": "Corsico", "storico": "S", "datastart": "1983-06-06T00:00:00.000", "utm_nord": "5031403", "utm_est": "507619", "lat": 45.43611269, "lng": 9.09741197, "location": { "type": "Point", "coordinates": [ 9.09741197, 45.43611269 ] }, ":@computed_region_6hky_swhk": "4", ":@computed_region_ttgh_9sm5": "4", ":@computed_region_af5v_nc64": "8", "datastop": "2006-11-04T00:00:00.000" }, "geometry": { "type": "Point", "coordinates": [ 9.09741197, 45.43611269 ] } },
{ "type": "Feature", "properties": { "idsensore": "10019", "nometiposensore": "Biossido di Azoto", "unitamisura": "µg/m³", "idstazione": "685", "nomestazione": "Calusco d'Adda v. Caduti sul Lavoro", "quota": "273", "provincia": "BG", "comune": "Calusco d'Adda", "storico": "N", "datastart": "2006-06-30T00:00:00.000", "utm_nord": "5059767", "utm_est": "537706", "lat": 45.69043647, "lng": 9.48426111, "location": { "type": "Point", "coordinates": [ 9.48426111, 45.69043647 ] }, ":@computed_region_6hky_swhk": "5", ":@computed_region_ttgh_9sm5": "5", ":@computed_region_af5v_nc64": "1", "datastop": null }, "geometry": { "type": "Point", "coordinates": [ 9.48426111, 45.69043647 ] } },
{ "type": "Feature", "properties": { "idsensore": "10269", "nometiposensore": "Ammoniaca", "unitamisura": "µg/m³", "idstazione": "502", "nomestazione": "Milano v.Juvara", "quota": "122", "provincia": "MI", "comune": "Milano", "storico": "S", "datastart": "2007-03-28T00:00:00.000", "utm_nord": "5035546", "utm_est": "517377", "lat": 45.47322769, "lng": 9.22231536, "location": { "type": "Point", "coordinates": [ 9.22231536, 45.47322769 ] }, ":@computed_region_6hky_swhk": "4", ":@computed_region_ttgh_9sm5": "4", ":@computed_region_af5v_nc64": "8", "datastop": "2007-06-11T00:00:00.000" }, "geometry": { "type": "Point", "coordinates": [ 9.22231536, 45.47322769 ] } },
{ "type": "Feature", "properties": { "idsensore": "6925", "nometiposensore": "PM10 (SM2005)", "unitamisura": "µg/m³", "idstazione": "571", "nomestazione": "Bormio v.Monte Braulio", "quota": "1225", "provincia": "SO", "comune": "Bormio", "storico": "N", "datastart": "2003-04-18T00:00:00.000", "utm_nord": "5147136", "utm_est": "605598", "lat": 46.46952397, "lng": 10.37543275, "location": { "type": "Point", "coordinates": [ 10.37543275, 46.46952397 ] }, ":@computed_region_6hky_swhk": "3", ":@computed_region_ttgh_9sm5": "3", ":@computed_region_af5v_nc64": "7", "datastop": null }, "geometry": { "type": "Point", "coordinates": [ 10.37543275, 46.46952397 ] } },
{ "type": "Feature", "properties": { "idsensore": "5703", "nometiposensore": "Biossido di Zolfo", "unitamisura": "µg/m³", "idstazione": "572", "nomestazione": "Morbegno v.Cortivacci", "quota": "262", "provincia": "SO", "comune": "Morbegno", "storico": "S", "datastart": "1998-09-29T00:00:00.000", "utm_nord": "5108901", "utm_est": "543736", "lat": 46.135486, "lng": 9.56624, "location": { "type": "Point", "coordinates": [ 9.56624, 46.135486 ] }, ":@computed_region_6hky_swhk": "3", ":@computed_region_ttgh_9sm5": "3", ":@computed_region_af5v_nc64": "7", "datastop": "2008-08-06T00:00:00.000" }, "geometry": { "type": "Point", "coordinates": [ 9.56624, 46.135486 ] } },
{ "type": "Feature", "properties": { "idsensore": "10155", "nometiposensore": "Biossido di Azoto", "unitamisura": "µg/m³", "idstazione": "702", "nomestazione": "Pieve di Coriano v. Bugatte", "quota": "16", "provincia": "MN", "comune": "Pieve di Coriano", "storico": "S", "datastart": "2006-11-29T00:00:00.000", "utm_nord": "4988901", "utm_est": "666747", "lat": 45.03394468, "lng": 11.11691932, "location": { "type": "Point", "coordinates": [ 11.11691932, 45.03394468 ] }, ":@computed_region_6hky_swhk": "9", ":@computed_region_ttgh_9sm5": "9", ":@computed_region_af5v_nc64": "4", "datastop": "2018-01-01T00:00:00.000" }, "geometry": { "type": "Point", "coordinates": [ 11.11691932, 45.03394468 ] } },
{ "type": "Feature", "properties": { "idsensore": "30160", "nometiposensore": "Biossido di Azoto", "unitamisura": "µg/m³", "idstazione": "655", "nomestazione": "Darfo Boario Terme v. De Amicis", "quota": "221", "provincia": "BS", "comune": "Darfo Boario Terme", "storico": "S", "datastart": "2013-12-13T00:00:00.000", "utm_nord": "5080789", "utm_est": "591371", "lat": 45.87460256, "lng": 10.17736553, "location": { "type": "Point", "coordinates": [ 10.17736553, 45.87460256 ] }, ":@computed_region_6hky_swhk": "6", ":@computed_region_ttgh_9sm5": "6", ":@computed_region_af5v_nc64": "7", "datastop": "2023-07-12T00:00:00.000" }, "geometry": { "type": "Point", "coordinates": [ 10.17736553, 45.87460256 ] } },
{ "type": "Feature", "properties": { "idsensore": "6845", "nometiposensore": "Ossidi di Azoto", "unitamisura": "µg/m³", "idstazione": "659", "nomestazione": "Odolo v.Praes", "quota": "349", "provincia": "BS", "comune": "Odolo", "storico": "N", "datastart": "1990-10-08T00:00:00.000", "utm_nord": "5055661", "utm_est": "608260", "lat": 45.64605175, "lng": 10.38929672, "location": { "type": "Point", "coordinates": [ 10.38929672, 45.64605175 ] }, ":@computed_region_6hky_swhk": "6", ":@computed_region_ttgh_9sm5": "6", ":@computed_region_af5v_nc64": "2", "datastop": null }, "geometry": { "type": "Point", "coordinates": [ 10.38929672, 45.64605175 ] } },
{ "type": "Feature", "properties": { "idsensore": "5718", "nometiposensore": "Ozono", "unitamisura": "µg/m³", "idstazione": "546", "nomestazione": "Magenta v. F. Turati", "quota": "137", "provincia": "MI", "comune": "Magenta", "storico": "S", "datastart": "1995-07-29T00:00:00.000", "utm_nord": "5034328", "utm_est": "490635", "lat": 45.46242074, "lng": 8.88021388, "location": { "type": "Point", "coordinates": [ 8.88021388, 45.46242074 ] }, ":@computed_region_6hky_swhk": "4", ":@computed_region_ttgh_9sm5": "4", ":@computed_region_af5v_nc64": "8", "datastop": "2023-10-03T00:00:00.000" }, "geometry": { "type": "Point", "coordinates": [ 8.88021388, 45.46242074 ] } },
{ "type": "Feature", "properties": { "idsensore": "6286", "nometiposensore": "Ossidi di Azoto", "unitamisura": "µg/m³", "idstazione": "530", "nomestazione": "Agrate Brianza v.Ferrario", "quota": "162", "provincia": "MB", "comune": "Agrate Brianza", "storico": "S", "datastart": "1990-02-13T00:00:00.000", "utm_nord": "5046977", "utm_est": "527628", "lat": 45.575778, "lng": 9.354094, "location": { "type": "Point", "coordinates": [ 9.354094, 45.575778 ] }, ":@computed_region_6hky_swhk": "12", ":@computed_region_ttgh_9sm5": "12", ":@computed_region_af5v_nc64": "5", "datastop": "2018-07-30T00:00:00.000" }, "geometry": { "type": "Point", "coordinates": [ 9.354094, 45.575778 ] } },
{ "type": "Feature", "properties": { "idsensore": "9855", "nometiposensore": "Ossidi di Azoto", "unitamisura": "µg/m³", "idstazione": "672", "nomestazione": "Cornale v.Libertà", "quota": "74", "provincia": "PV", "comune": "Cornale", "storico": "N", "datastart": "2005-07-29T00:00:00.000", "utm_nord": "4987406", "utm_est": "493238", "lat": 45.04008561, "lng": 8.91415717, "location": { "type": "Point", "coordinates": [ 8.91415717, 45.04008561 ] }, ":@computed_region_6hky_swhk": "7", ":@computed_region_ttgh_9sm5": "7", ":@computed_region_af5v_nc64": "6", "datastop": null }, "geometry": { "type": "Point", "coordinates": [ 8.91415717, 45.04008561 ] } },
{ "type": "Feature", "properties": { "idsensore": "10581", "nometiposensore": "Biossido di Azoto", "unitamisura": "µg/m³", "idstazione": "1274", "nomestazione": "Perledo P.zza della stazione", "quota": "212", "provincia": "LC", "comune": "Perledo", "storico": "N", "datastart": "2010-09-01T00:00:00.000", "utm_nord": "5095846", "utm_est": "522171", "lat": 46.01583272, "lng": 9.28641942, "location": { "type": "Point", "coordinates": [ 9.28641942, 46.01583272 ] }, ":@computed_region_6hky_swhk": "10", ":@computed_region_ttgh_9sm5": "10", ":@computed_region_af5v_nc64": "5", "datastop": null }, "geometry": { "type": "Point", "coordinates": [ 9.28641942, 46.01583272 ] } },
{ "type": "Feature", "properties": { "idsensore": "5586", "nometiposensore": "Biossido di Azoto", "unitamisura": "µg/m³", "idstazione": "583", "nomestazione": "Bergamo v.Meucci", "quota": "249", "provincia": "BG", "comune": "Bergamo", "storico": "N", "datastart": "1989-06-01T00:00:00.000", "utm_nord": "5059922", "utm_est": "550116", "lat": 45.69104328, "lng": 9.64366092, "location": { "type": "Point", "coordinates": [ 9.64366092, 45.69104328 ] }, ":@computed_region_6hky_swhk": "5", ":@computed_region_ttgh_9sm5": "5", ":@computed_region_af5v_nc64": "1", "datastop": null }, "geometry": { "type": "Point", "coordinates": [ 9.64366092, 45.69104328 ] } },
{ "type": "Feature", "properties": { "idsensore": "20754", "nometiposensore": "Benzene", "unitamisura": "µg/m³", "idstazione": "1322", "nomestazione": "DarfoBT", "quota": "221", "provincia": "BS", "comune": "Darfo Boario Terme", "storico": "N", "datastart": "2024-03-08T00:00:00.000", "utm_nord": "5080975", "utm_est": "591483", "lat": 45.87626097, "lng": 10.17883506, "location": { "type": "Point", "coordinates": [ 10.17883506, 45.87626097 ] }, ":@computed_region_6hky_swhk": "6", ":@computed_region_ttgh_9sm5": "6", ":@computed_region_af5v_nc64": "7", "datastop": null }, "geometry": { "type": "Point", "coordinates": [ 10.17883506, 45.87626097 ] } },
{ "type": "Feature", "properties": { "idsensore": "10081", "nometiposensore": "Ozono", "unitamisura": "µg/m³", "idstazione": "695", "nomestazione": "Ponti sul Mincio v.San Martino", "quota": "113", "provincia": "MN", "comune": "Ponti sul Mincio", "storico": "N", "datastart": "2007-02-06T00:00:00.000", "utm_nord": "5030184", "utm_est": "631718", "lat": 45.41277633, "lng": 10.68336214, "location": { "type": "Point", "coordinates": [ 10.68336214, 45.41277633 ] }, ":@computed_region_6hky_swhk": "9", ":@computed_region_ttgh_9sm5": "9", ":@computed_region_af5v_nc64": "4", "datastop": null }, "geometry": { "type": "Point", "coordinates": [ 10.68336214, 45.41277633 ] } },
{ "type": "Feature", "properties": { "idsensore": "5591", "nometiposensore": "Biossido di Azoto", "unitamisura": "µg/m³", "idstazione": "588", "nomestazione": "Tavernola Bergamasca v.Riva di Sotto", "quota": "191", "provincia": "BG", "comune": "Tavernola Bergamasca", "storico": "N", "datastart": "1990-09-21T00:00:00.000", "utm_nord": "5063058", "utm_est": "581311", "lat": 45.71630489, "lng": 10.04477436, "location": { "type": "Point", "coordinates": [ 10.04477436, 45.71630489 ] }, ":@computed_region_6hky_swhk": "5", ":@computed_region_ttgh_9sm5": "5", ":@computed_region_af5v_nc64": "1", "datastop": null }, "geometry": { "type": "Point", "coordinates": [ 10.04477436, 45.71630489 ] } },
{ "type": "Feature", "properties": { "idsensore": "10456", "nometiposensore": "Particelle sospese PM2.5", "unitamisura": "µg/m³", "idstazione": "1265", "nomestazione": "Lodi S.Alberto", "quota": "76", "provincia": "LO", "comune": "Lodi", "storico": "N", "datastart": "2009-08-03T00:00:00.000", "utm_nord": "5016706", "utm_est": "538829", "lat": 45.30278678, "lng": 9.49528589, "location": { "type": "Point", "coordinates": [ 9.49528589, 45.30278678 ] }, ":@computed_region_6hky_swhk": "11", ":@computed_region_ttgh_9sm5": "11", ":@computed_region_af5v_nc64": "8", "datastop": null }, "geometry": { "type": "Point", "coordinates": [ 9.49528589, 45.30278678 ] } },
{ "type": "Feature", "properties": { "idsensore": "6262", "nometiposensore": "Ossidi di Azoto", "unitamisura": "µg/m³", "idstazione": "603", "nomestazione": "Castiraga Vidardo v.Craxi", "quota": "74", "provincia": "LO", "comune": "Castiraga Vidardo", "storico": "S", "datastart": "2000-01-13T00:00:00.000", "utm_nord": "5012170", "utm_est": "531404", "lat": 45.26232903, "lng": 9.40029257, "location": { "type": "Point", "coordinates": [ 9.40029257, 45.26232903 ] }, ":@computed_region_6hky_swhk": "11", ":@computed_region_ttgh_9sm5": "11", ":@computed_region_af5v_nc64": "8", "datastop": "2018-01-01T00:00:00.000" }, "geometry": { "type": "Point", "coordinates": [ 9.40029257, 45.26232903 ] } },
{ "type": "Feature", "properties": { "idsensore": "5658", "nometiposensore": "Biossido di Zolfo", "unitamisura": "µg/m³", "idstazione": "552", "nomestazione": "Varese v.Vidoletti", "quota": "425", "provincia": "VA", "comune": "Varese", "storico": "N", "datastart": "1991-12-23T00:00:00.000", "utm_nord": "5075945", "utm_est": "484773", "lat": 45.83690178, "lng": 8.80393513, "location": { "type": "Point", "coordinates": [ 8.80393513, 45.83690178 ] }, ":@computed_region_6hky_swhk": "1", ":@computed_region_ttgh_9sm5": "1", ":@computed_region_af5v_nc64": "3", "datastop": null }, "geometry": { "type": "Point", "coordinates": [ 8.80393513, 45.83690178 ] } },
{ "type": "Feature", "properties": { "idsensore": "5827", "nometiposensore": "Monossido di Carbonio", "unitamisura": "mg/m³", "idstazione": "501", "nomestazione": "Milano v.Marche", "quota": "129", "provincia": "MI", "comune": "Milano", "storico": "N", "datastart": "1989-04-05T00:00:00.000", "utm_nord": "5038105", "utm_est": "514918", "lat": 45.49631883, "lng": 9.19093444, "location": { "type": "Point", "coordinates": [ 9.19093444, 45.49631883 ] }, ":@computed_region_6hky_swhk": "4", ":@computed_region_ttgh_9sm5": "4", ":@computed_region_af5v_nc64": "8", "datastop": null }, "geometry": { "type": "Point", "coordinates": [ 9.19093444, 45.49631883 ] } },
{ "type": "Feature", "properties": { "idsensore": "6428", "nometiposensore": "Ossidi di Azoto", "unitamisura": "µg/m³", "idstazione": "633", "nomestazione": "Soresina v. Landriani", "quota": "70", "provincia": "CR", "comune": "Soresina", "storico": "N", "datastart": "2002-01-01T00:00:00.000", "utm_nord": "5014860", "utm_est": "567712", "lat": 45.28398, "lng": 9.86340258, "location": { "type": "Point", "coordinates": [ 9.86340258, 45.28398 ] }, ":@computed_region_6hky_swhk": "8", ":@computed_region_ttgh_9sm5": "8", ":@computed_region_af5v_nc64": "4", "datastop": null }, "geometry": { "type": "Point", "coordinates": [ 9.86340258, 45.28398 ] } },
{ "type": "Feature", "properties": { "idsensore": "12667", "nometiposensore": "Nikel", "unitamisura": "ng/m³", "idstazione": "703", "nomestazione": "Schivenoglia v. Malpasso", "quota": null, "provincia": "MN", "comune": "Schivenoglia", "storico": "N", "datastart": "2008-02-23T00:00:00.000", "utm_nord": "4986922", "utm_est": "663580", "lat": 45.01688067, "lng": 11.07609728, "location": { "type": "Point", "coordinates": [ 11.07609728, 45.01688067 ] }, ":@computed_region_6hky_swhk": "9", ":@computed_region_ttgh_9sm5": "9", ":@computed_region_af5v_nc64": "4", "datastop": null }, "geometry": { "type": "Point", "coordinates": [ 11.07609728, 45.01688067 ] } },
{ "type": "Feature", "properties": { "idsensore": "9856", "nometiposensore": "Ozono", "unitamisura": "µg/m³", "idstazione": "672", "nomestazione": "Cornale v.Libertà", "quota": "74", "provincia": "PV", "comune": "Cornale", "storico": "N", "datastart": "2005-07-29T00:00:00.000", "utm_nord": "4987406", "utm_est": "493238", "lat": 45.04008561, "lng": 8.91415717, "location": { "type": "Point", "coordinates": [ 8.91415717, 45.04008561 ] }, ":@computed_region_6hky_swhk": "7", ":@computed_region_ttgh_9sm5": "7", ":@computed_region_af5v_nc64": "6", "datastop": null }, "geometry": { "type": "Point", "coordinates": [ 8.91415717, 45.04008561 ] } },
{ "type": "Feature", "properties": { "idsensore": "20570", "nometiposensore": "Ozono", "unitamisura": "µg/m³", "idstazione": "659", "nomestazione": "Odolo v.Praes", "quota": "349", "provincia": "BS", "comune": "Odolo", "storico": "N", "datastart": "2023-01-03T00:00:00.000", "utm_nord": "5055661", "utm_est": "608260", "lat": 45.64605175, "lng": 10.38929672, "location": { "type": "Point", "coordinates": [ 10.38929672, 45.64605175 ] }, ":@computed_region_6hky_swhk": "6", ":@computed_region_ttgh_9sm5": "6", ":@computed_region_af5v_nc64": "2", "datastop": null }, "geometry": { "type": "Point", "coordinates": [ 10.38929672, 45.64605175 ] } },
{ "type": "Feature", "properties": { "idsensore": "20357", "nometiposensore": "Particelle sospese PM2.5", "unitamisura": "µg/m³", "idstazione": "571", "nomestazione": "Bormio v.Monte Braulio", "quota": "1225", "provincia": "SO", "comune": "Bormio", "storico": "N", "datastart": "2016-10-26T00:00:00.000", "utm_nord": "5147136", "utm_est": "605598", "lat": 46.46952397, "lng": 10.37543275, "location": { "type": "Point", "coordinates": [ 10.37543275, 46.46952397 ] }, ":@computed_region_6hky_swhk": "3", ":@computed_region_ttgh_9sm5": "3", ":@computed_region_af5v_nc64": "7", "datastop": null }, "geometry": { "type": "Point", "coordinates": [ 10.37543275, 46.46952397 ] } },
{ "type": "Feature", "properties": { "idsensore": "6338", "nometiposensore": "Ossidi di Azoto", "unitamisura": "µg/m³", "idstazione": "545", "nomestazione": "Motta Visconti v. De Gasperi", "quota": "100", "provincia": "MI", "comune": "Motta Visconti", "storico": "N", "datastart": "1998-03-17T00:00:00.000", "utm_nord": "5014273", "utm_est": "499103", "lat": 45.28196356, "lng": 8.98857592, "location": { "type": "Point", "coordinates": [ 8.98857592, 45.28196356 ] }, ":@computed_region_6hky_swhk": "4", ":@computed_region_ttgh_9sm5": "4", ":@computed_region_af5v_nc64": "8", "datastop": null }, "geometry": { "type": "Point", "coordinates": [ 8.98857592, 45.28196356 ] } },
{ "type": "Feature", "properties": { "idsensore": "10258", "nometiposensore": "Ammoniaca", "unitamisura": "µg/m³", "idstazione": "626", "nomestazione": "Corte de' Cortesi con Cignone v. Villa Strada Forca", "quota": "57", "provincia": "CR", "comune": "Corte de' Cortesi con Cignone", "storico": "N", "datastart": "2006-11-22T00:00:00.000", "utm_nord": "5014380", "utm_est": "578919", "lat": 45.27848997, "lng": 10.00620528, "location": { "type": "Point", "coordinates": [ 10.00620528, 45.27848997 ] }, ":@computed_region_6hky_swhk": "8", ":@computed_region_ttgh_9sm5": "8", ":@computed_region_af5v_nc64": "4", "datastop": null }, "geometry": { "type": "Point", "coordinates": [ 10.00620528, 45.27848997 ] } },
{ "type": "Feature", "properties": { "idsensore": "6745", "nometiposensore": "Biossido di Zolfo", "unitamisura": "µg/m³", "idstazione": "647", "nomestazione": "Breno v.Don Putelli", "quota": "342", "provincia": "BS", "comune": "Breno", "storico": "S", "datastart": "1992-06-09T00:00:00.000", "utm_nord": "5090074", "utm_est": "600822", "lat": 45.95683656, "lng": 10.30106589, "location": { "type": "Point", "coordinates": [ 10.30106589, 45.95683656 ] }, ":@computed_region_6hky_swhk": "6", ":@computed_region_ttgh_9sm5": "6", ":@computed_region_af5v_nc64": "7", "datastop": "2003-11-18T00:00:00.000" }, "geometry": { "type": "Point", "coordinates": [ 10.30106589, 45.95683656 ] } },
{ "type": "Feature", "properties": { "idsensore": "10083", "nometiposensore": "PM10 (SM2005)", "unitamisura": "µg/m³", "idstazione": "695", "nomestazione": "Ponti sul Mincio v.San Martino", "quota": "113", "provincia": "MN", "comune": "Ponti sul Mincio", "storico": "N", "datastart": "2006-12-20T00:00:00.000", "utm_nord": "5030184", "utm_est": "631718", "lat": 45.41277633, "lng": 10.68336214, "location": { "type": "Point", "coordinates": [ 10.68336214, 45.41277633 ] }, ":@computed_region_6hky_swhk": "9", ":@computed_region_ttgh_9sm5": "9", ":@computed_region_af5v_nc64": "4", "datastop": null }, "geometry": { "type": "Point", "coordinates": [ 10.68336214, 45.41277633 ] } },
{ "type": "Feature", "properties": { "idsensore": "12579", "nometiposensore": "Biossido di Azoto", "unitamisura": "µg/m³", "idstazione": "1303", "nomestazione": "Cremona v.Gerre Borghi", "quota": "36", "provincia": "CR", "comune": "Cremona", "storico": "S", "datastart": "2012-01-01T00:00:00.000", "utm_nord": "4995675", "utm_est": "584111", "lat": 45.10954275, "lng": 10.06924181, "location": { "type": "Point", "coordinates": [ 10.06924181, 45.10954275 ] }, ":@computed_region_6hky_swhk": "8", ":@computed_region_ttgh_9sm5": "8", ":@computed_region_af5v_nc64": "4", "datastop": "2017-01-01T00:00:00.000" }, "geometry": { "type": "Point", "coordinates": [ 10.06924181, 45.10954275 ] } },
{ "type": "Feature", "properties": { "idsensore": "5796", "nometiposensore": "Monossido di Carbonio", "unitamisura": "mg/m³", "idstazione": "586", "nomestazione": "Costa Volpino v.Nazionale", "quota": "192", "provincia": "BG", "comune": "Costa Volpino", "storico": "S", "datastart": "1993-07-26T00:00:00.000", "utm_nord": "5075429", "utm_est": "585212", "lat": 45.82716061, "lng": 10.09707131, "location": { "type": "Point", "coordinates": [ 10.09707131, 45.82716061 ] }, ":@computed_region_6hky_swhk": "5", ":@computed_region_ttgh_9sm5": "5", ":@computed_region_af5v_nc64": "1", "datastop": "2011-09-12T00:00:00.000" }, "geometry": { "type": "Point", "coordinates": [ 10.09707131, 45.82716061 ] } },
{ "type": "Feature", "properties": { "idsensore": "5579", "nometiposensore": "Biossido di Azoto", "unitamisura": "µg/m³", "idstazione": "576", "nomestazione": "Merate v. Madonna di Loreto", "quota": "279", "provincia": "LC", "comune": "Merate", "storico": "N", "datastart": "1991-02-18T00:00:00.000", "utm_nord": "5060569", "utm_est": "531623", "lat": 45.69795956, "lng": 9.40619194, "location": { "type": "Point", "coordinates": [ 9.40619194, 45.69795956 ] }, ":@computed_region_6hky_swhk": "10", ":@computed_region_ttgh_9sm5": "10", ":@computed_region_af5v_nc64": "5", "datastop": null }, "geometry": { "type": "Point", "coordinates": [ 9.40619194, 45.69795956 ] } },
{ "type": "Feature", "properties": { "idsensore": "5846", "nometiposensore": "Monossido di Carbonio", "unitamisura": "mg/m³", "idstazione": "570", "nomestazione": "Tirano Viale Italia", "quota": "439", "provincia": "SO", "comune": "Tirano", "storico": "S", "datastart": "1996-05-30T00:00:00.000", "utm_nord": "5118891", "utm_est": "589196", "lat": 46.216293, "lng": 10.170397, "location": { "type": "Point", "coordinates": [ 10.170397, 46.216293 ] }, ":@computed_region_6hky_swhk": "3", ":@computed_region_ttgh_9sm5": "3", ":@computed_region_af5v_nc64": "7", "datastop": "2018-07-30T00:00:00.000" }, "geometry": { "type": "Point", "coordinates": [ 10.170397, 46.216293 ] } },
{ "type": "Feature", "properties": { "idsensore": "5569", "nometiposensore": "Biossido di Azoto", "unitamisura": "µg/m³", "idstazione": "566", "nomestazione": "Olgiate Comasco v.Roma", "quota": "404", "provincia": "CO", "comune": "Olgiate Comasco", "storico": "S", "datastart": "1995-02-01T00:00:00.000", "utm_nord": "5070038", "utm_est": "497388", "lat": 45.78389908, "lng": 8.96640489, "location": { "type": "Point", "coordinates": [ 8.96640489, 45.78389908 ] }, ":@computed_region_6hky_swhk": "2", ":@computed_region_ttgh_9sm5": "2", ":@computed_region_af5v_nc64": "3", "datastop": "2010-04-15T00:00:00.000" }, "geometry": { "type": "Point", "coordinates": [ 8.96640489, 45.78389908 ] } },
{ "type": "Feature", "properties": { "idsensore": "20004", "nometiposensore": "BlackCarbon", "unitamisura": "µg/m³", "idstazione": "705", "nomestazione": "Milano Pascal Città Studi", "quota": "122", "provincia": "MI", "comune": "Milano", "storico": "N", "datastart": "2013-09-30T00:00:00.000", "utm_nord": "5036190", "utm_est": "518405", "lat": 45.478347, "lng": 9.231667, "location": { "type": "Point", "coordinates": [ 9.231667, 45.478347 ] }, ":@computed_region_6hky_swhk": "4", ":@computed_region_ttgh_9sm5": "4", ":@computed_region_af5v_nc64": "8", "datastop": null }, "geometry": { "type": "Point", "coordinates": [ 9.231667, 45.478347 ] } },
{ "type": "Feature", "properties": { "idsensore": "6248", "nometiposensore": "Ossidi di Azoto", "unitamisura": "µg/m³", "idstazione": "574", "nomestazione": "Lecco v. Amendola", "quota": "214", "provincia": "LC", "comune": "Lecco", "storico": "N", "datastart": "1991-01-01T00:00:00.000", "utm_nord": "5077479", "utm_est": "530713", "lat": 45.85019631, "lng": 9.39558125, "location": { "type": "Point", "coordinates": [ 9.39558125, 45.85019631 ] }, ":@computed_region_6hky_swhk": "10", ":@computed_region_ttgh_9sm5": "10", ":@computed_region_af5v_nc64": "5", "datastop": null }, "geometry": { "type": "Point", "coordinates": [ 9.39558125, 45.85019631 ] } },
{ "type": "Feature", "properties": { "idsensore": "30165", "nometiposensore": "Ozono", "unitamisura": "µg/m³", "idstazione": "669", "nomestazione": "Brescia Villaggio Sereno", "quota": "70", "provincia": "BS", "comune": "Brescia", "storico": "N", "datastart": "2013-12-13T00:00:00.000", "utm_nord": "5040636", "utm_est": "593101", "lat": 45.51306214, "lng": 10.19190606, "location": { "type": "Point", "coordinates": [ 10.19190606, 45.51306214 ] }, ":@computed_region_6hky_swhk": "6", ":@computed_region_ttgh_9sm5": "6", ":@computed_region_af5v_nc64": "2", "datastop": null }, "geometry": { "type": "Point", "coordinates": [ 10.19190606, 45.51306214 ] } },
{ "type": "Feature", "properties": { "idsensore": "6898", "nometiposensore": "Biossido di Azoto", "unitamisura": "µg/m³", "idstazione": "668", "nomestazione": "Mantova Lunetta2", "quota": "25", "provincia": "MN", "comune": "Mantova", "storico": "S", "datastart": "2003-01-01T00:00:00.000", "utm_nord": "5002119", "utm_est": "643358", "lat": 45.15799358, "lng": 10.82394014, "location": { "type": "Point", "coordinates": [ 10.82394014, 45.15799358 ] }, ":@computed_region_6hky_swhk": "9", ":@computed_region_ttgh_9sm5": "9", ":@computed_region_af5v_nc64": "4", "datastop": "2018-07-30T00:00:00.000" }, "geometry": { "type": "Point", "coordinates": [ 10.82394014, 45.15799358 ] } },
{ "type": "Feature", "properties": { "idsensore": "17126", "nometiposensore": "Benzene", "unitamisura": "µg/m³", "idstazione": "705", "nomestazione": "Milano Pascal Città Studi", "quota": "122", "provincia": "MI", "comune": "Milano", "storico": "N", "datastart": "2012-09-13T00:00:00.000", "utm_nord": "5036190", "utm_est": "518405", "lat": 45.478347, "lng": 9.231667, "location": { "type": "Point", "coordinates": [ 9.231667, 45.478347 ] }, ":@computed_region_6hky_swhk": "4", ":@computed_region_ttgh_9sm5": "4", ":@computed_region_af5v_nc64": "8", "datastop": null }, "geometry": { "type": "Point", "coordinates": [ 9.231667, 45.478347 ] } },
{ "type": "Feature", "properties": { "idsensore": "6734", "nometiposensore": "Ossidi di Azoto", "unitamisura": "µg/m³", "idstazione": "645", "nomestazione": "Voghera v.Repubblica", "quota": "100", "provincia": "PV", "comune": "Voghera", "storico": "S", "datastart": "2003-06-01T00:00:00.000", "utm_nord": "4981380", "utm_est": "500562", "lat": 44.98587178, "lng": 9.00714089, "location": { "type": "Point", "coordinates": [ 9.00714089, 44.98587178 ] }, ":@computed_region_6hky_swhk": "7", ":@computed_region_ttgh_9sm5": "7", ":@computed_region_af5v_nc64": "6", "datastop": "2012-10-15T00:00:00.000" }, "geometry": { "type": "Point", "coordinates": [ 9.00714089, 44.98587178 ] } },
{ "type": "Feature", "properties": { "idsensore": "5747", "nometiposensore": "Ozono", "unitamisura": "µg/m³", "idstazione": "559", "nomestazione": "Somma Lombardo v.Facchinetti", "quota": "210", "provincia": "VA", "comune": "Somma Lombardo", "storico": "S", "datastart": "2000-03-21T00:00:00.000", "utm_nord": "5055150", "utm_est": "477613", "lat": 45.64954097, "lng": 8.71269853, "location": { "type": "Point", "coordinates": [ 8.71269853, 45.64954097 ] }, ":@computed_region_6hky_swhk": "1", ":@computed_region_ttgh_9sm5": "1", ":@computed_region_af5v_nc64": "3", "datastop": "2018-01-01T00:00:00.000" }, "geometry": { "type": "Point", "coordinates": [ 8.71269853, 45.64954097 ] } },
{ "type": "Feature", "properties": { "idsensore": "20581", "nometiposensore": "BlackCarbon", "unitamisura": "µg/m³", "idstazione": "705", "nomestazione": "Milano Pascal Città Studi", "quota": "122", "provincia": "MI", "comune": "Milano", "storico": "N", "datastart": "2023-04-18T00:00:00.000", "utm_nord": "5036190", "utm_est": "518405", "lat": 45.478347, "lng": 9.231667, "location": { "type": "Point", "coordinates": [ 9.231667, 45.478347 ] }, ":@computed_region_6hky_swhk": "4", ":@computed_region_ttgh_9sm5": "4", ":@computed_region_af5v_nc64": "8", "datastop": null }, "geometry": { "type": "Point", "coordinates": [ 9.231667, 45.478347 ] } },
{ "type": "Feature", "properties": { "idsensore": "5648", "nometiposensore": "Biossido di Zolfo", "unitamisura": "µg/m³", "idstazione": "507", "nomestazione": "Villasanta v. A. Volta", "quota": "176", "provincia": "MB", "comune": "Villasanta", "storico": "S", "datastart": "1976-12-18T00:00:00.000", "utm_nord": "5050610", "utm_est": "523948", "lat": 45.60862236, "lng": 9.30711961, "location": { "type": "Point", "coordinates": [ 9.30711961, 45.60862236 ] }, ":@computed_region_6hky_swhk": "12", ":@computed_region_ttgh_9sm5": "12", ":@computed_region_af5v_nc64": "5", "datastop": "1999-05-03T00:00:00.000" }, "geometry": { "type": "Point", "coordinates": [ 9.30711961, 45.60862236 ] } },
{ "type": "Feature", "properties": { "idsensore": "5838", "nometiposensore": "Monossido di Carbonio", "unitamisura": "mg/m³", "idstazione": "528", "nomestazione": "Milano Verziere", "quota": "116", "provincia": "MI", "comune": "Milano", "storico": "S", "datastart": "1988-09-30T00:00:00.000", "utm_nord": "5034443", "utm_est": "515270", "lat": 45.46334886, "lng": 9.19532511, "location": { "type": "Point", "coordinates": [ 9.19532511, 45.46334886 ] }, ":@computed_region_6hky_swhk": "4", ":@computed_region_ttgh_9sm5": "4", ":@computed_region_af5v_nc64": "8", "datastop": "2011-07-04T00:00:00.000" }, "geometry": { "type": "Point", "coordinates": [ 9.19532511, 45.46334886 ] } },
{ "type": "Feature", "properties": { "idsensore": "12688", "nometiposensore": "Benzo(a)pirene", "unitamisura": "ng/m³", "idstazione": "633", "nomestazione": "Soresina v. Landriani", "quota": "70", "provincia": "CR", "comune": "Soresina", "storico": "N", "datastart": "2008-04-02T00:00:00.000", "utm_nord": "5014860", "utm_est": "567712", "lat": 45.28398, "lng": 9.86340258, "location": { "type": "Point", "coordinates": [ 9.86340258, 45.28398 ] }, ":@computed_region_6hky_swhk": "8", ":@computed_region_ttgh_9sm5": "8", ":@computed_region_af5v_nc64": "4", "datastop": null }, "geometry": { "type": "Point", "coordinates": [ 9.86340258, 45.28398 ] } },
{ "type": "Feature", "properties": { "idsensore": "10396", "nometiposensore": "Particelle sospese PM2.5", "unitamisura": "µg/m³", "idstazione": "674", "nomestazione": "Monza v.Machiavelli", "quota": "162", "provincia": "MB", "comune": "Monza", "storico": "N", "datastart": "2008-12-19T00:00:00.000", "utm_nord": "5047450", "utm_est": "521343", "lat": 45.574117, "lng": 9.263808, "location": { "type": "Point", "coordinates": [ 9.263808, 45.574117 ] }, ":@computed_region_6hky_swhk": "12", ":@computed_region_ttgh_9sm5": "12", ":@computed_region_af5v_nc64": "5", "datastop": null }, "geometry": { "type": "Point", "coordinates": [ 9.263808, 45.574117 ] } },
{ "type": "Feature", "properties": { "idsensore": "6635", "nometiposensore": "Particolato Totale Sospeso", "unitamisura": "µg/m³", "idstazione": "508", "nomestazione": "Cassano d'Adda v.di Vona", "quota": "133", "provincia": "MI", "comune": "Cassano d'Adda", "storico": "S", "datastart": "1984-12-10T00:00:00.000", "utm_nord": "5040847", "utm_est": "540004", "lat": 45.52000944, "lng": 9.51223153, "location": { "type": "Point", "coordinates": [ 9.51223153, 45.52000944 ] }, ":@computed_region_6hky_swhk": "4", ":@computed_region_ttgh_9sm5": "4", ":@computed_region_af5v_nc64": "8", "datastop": "2005-11-14T00:00:00.000" }, "geometry": { "type": "Point", "coordinates": [ 9.51223153, 45.52000944 ] } },
{ "type": "Feature", "properties": { "idsensore": "12610", "nometiposensore": "Piombo", "unitamisura": "ng/m³", "idstazione": "546", "nomestazione": "Magenta v. F. Turati", "quota": "137", "provincia": "MI", "comune": "Magenta", "storico": "N", "datastart": "2008-04-15T00:00:00.000", "utm_nord": "5034328", "utm_est": "490635", "lat": 45.46242074, "lng": 8.88021388, "location": { "type": "Point", "coordinates": [ 8.88021388, 45.46242074 ] }, ":@computed_region_6hky_swhk": "4", ":@computed_region_ttgh_9sm5": "4", ":@computed_region_af5v_nc64": "8", "datastop": null }, "geometry": { "type": "Point", "coordinates": [ 8.88021388, 45.46242074 ] } },
{ "type": "Feature", "properties": { "idsensore": "5730", "nometiposensore": "Ozono", "unitamisura": "µg/m³", "idstazione": "564", "nomestazione": "Erba v. Battisti", "quota": "279", "provincia": "CO", "comune": "Erba", "storico": "S", "datastart": "2009-01-01T00:00:00.000", "utm_nord": "5072803", "utm_est": "517232", "lat": 45.8085738, "lng": 9.2217792, "location": { "type": "Point", "coordinates": [ 9.2217792, 45.8085738 ] }, ":@computed_region_6hky_swhk": "2", ":@computed_region_ttgh_9sm5": "2", ":@computed_region_af5v_nc64": "3", "datastop": "2024-07-20T00:00:00.000" }, "geometry": { "type": "Point", "coordinates": [ 9.2217792, 45.8085738 ] } },
{ "type": "Feature", "properties": { "idsensore": "20428", "nometiposensore": "PM10 (SM2005)", "unitamisura": "µg/m³", "idstazione": "683", "nomestazione": "Cassano d'Adda 2-v.Milano", "quota": "133", "provincia": "MI", "comune": "Cassano d'Adda", "storico": "S", "datastart": "2017-12-19T00:00:00.000", "utm_nord": "5041567", "utm_est": "540293", "lat": 45.52647322, "lng": 9.515991, "location": { "type": "Point", "coordinates": [ 9.515991, 45.52647322 ] }, ":@computed_region_6hky_swhk": "4", ":@computed_region_ttgh_9sm5": "4", ":@computed_region_af5v_nc64": "8", "datastop": "2024-04-07T00:00:00.000" }, "geometry": { "type": "Point", "coordinates": [ 9.515991, 45.52647322 ] } },
{ "type": "Feature", "properties": { "idsensore": "5962", "nometiposensore": "Biossido di Zolfo", "unitamisura": "µg/m³", "idstazione": "630", "nomestazione": "Crema v.Indipendenza", "quota": "78", "provincia": "CR", "comune": "Crema", "storico": "S", "datastart": "1992-11-01T00:00:00.000", "utm_nord": "5024212", "utm_est": "553035", "lat": 45.36941556, "lng": 9.67727511, "location": { "type": "Point", "coordinates": [ 9.67727511, 45.36941556 ] }, ":@computed_region_6hky_swhk": "8", ":@computed_region_ttgh_9sm5": "8", ":@computed_region_af5v_nc64": "4", "datastop": "2003-10-02T00:00:00.000" }, "geometry": { "type": "Point", "coordinates": [ 9.67727511, 45.36941556 ] } },